UID,URL,NAME,RATING,TYPE,Latitude,Longitude
1,https://www.google.com/maps/place/Ganga+Jamuna+Bakery+And+General+Stores/data=!4m7!3m6!1s0x3bc2c0368de8cff5:0x95169ea5414e31dd!8m2!3d18.5055385!4d73.881941!16s%2Fg%2F1pp2tw0_1!19sChIJ9c_ojTbAwjsR3TFOQaWeFpU?authuser=0&hl=en&rclk=1,Ganga Jamuna Bakery And General Stores,3.8,Bakery and Cake Shop,18.5055385,73.881941
2,https://www.google.com/maps/place/Camp+Pune/data=!4m7!3m6!1s0x3bc2c11cc23215ad:0xbec6b460affb1e3a!8m2!3d18.5149663!4d73.8778799!16s%2Fg%2F11g0gp4kg_!19sChIJrRUywhzBwjsROh77r2C0xr4?authuser=0&hl=en&rclk=1,Camp Pune,4.4,Bakery and Cake Shop,18.5149663,73.8778799
3,https://www.google.com/maps/place/Shegaon+Kachori/data=!4m7!3m6!1s0x3bc2c14e64c80a5d:0xc54906317551e7cc!8m2!3d18.5083013!4d73.8793729!16s%2Fg%2F11ll8f49nf!19sChIJXQrIZE7BwjsRzOdRdTEGScU?authuser=0&hl=en&rclk=1,Shegaon Kachori,3.7,Bakery and Cake Shop,18.5083013,73.8793729
4,https://www.google.com/maps/place/Gold+Bakery+And+Confectionery/data=!4m7!3m6!1s0x3bc2c0368c928c35:0xe29fb97f1f4fce0c!8m2!3d18.5056814!4d73.8817832!16s%2Fg%2F1pp2tzfl5!19sChIJNYySjDbAwjsRDM5PH3-5n-I?authuser=0&hl=en&rclk=1,Gold Bakery And Confectionery,4,Bakery and Cake Shop,18.5056814,73.8817832
5,https://www.google.com/maps/place/Shree+Sadguru+Krupa+Snacks+Centre/data=!4m7!3m6!1s0x3bc2c159bbc6765d:0x58255547df3c7b89!8m2!3d18.5179049!4d73.8644813!16s%2Fg%2F11rgmswzyy!19sChIJXXbGu1nBwjsRiXs830dVJVg?authuser=0&hl=en&rclk=1,Shree Sadguru Krupa Snacks Centre,5,Bakery and Cake Shop,18.5179049,73.8644813
6,https://www.google.com/maps/place/Fresh+Bake/data=!4m7!3m6!1s0x3bc2c037b3c9ee8f:0x22d854deaa612993!8m2!3d18.5067464!4d73.8797515!16s%2Fg%2F11h42p_4zr!19sChIJj-7JszfAwjsRkylhqt5U2CI?authuser=0&hl=en&rclk=1,Fresh Bake,3,Bakery and Cake Shop,18.5067464,73.8797515
7,https://www.google.com/maps/place/Kayani+Bakery/data=!4m7!3m6!1s0x3bc2c04f2a978d45:0x386bee1e06d701ac!8m2!3d18.5148173!4d73.8799378!16s%2Fg%2F1tltktq9!19sChIJRY2XKk_AwjsRrAHXBh7uazg?authuser=0&hl=en&rclk=1,Kayani Bakery,4.4,Bakery and Cake Shop,18.5148173,73.8799378
8,https://www.google.com/maps/place/City+Bakery/data=!4m7!3m6!1s0x3bc2c04fcefb17cd:0x1a12aad5979196bc!8m2!3d18.5116289!4d73.8789619!16s%2Fg%2F1tkc53w9!19sChIJzRf7zk_AwjsRvJaRl9WqEho?authuser=0&hl=en&rclk=1,City Bakery,4.4,Bakery and Cake Shop,18.5116289,73.8789619
9,https://www.google.com/maps/place/Aksa+Bakery/data=!4m7!3m6!1s0x3bc2c10896099c1f:0x411d7d6dc0652c84!8m2!3d18.5119622!4d73.8764748!16s%2Fg%2F11h2fglzny!19sChIJH5wJlgjBwjsRhCxlwG19HUE?authuser=0&hl=en&rclk=1,Aksa Bakery,4.3,Bakery and Cake Shop,18.5119622,73.8764748
10,https://www.google.com/maps/place/Neha%27s+Yummy+Cake+%26+Cafe/data=!4m7!3m6!1s0x3bc2c06521c3d9bb:0xc2fa3423b75ddd1f!8m2!3d18.5201784!4d73.8543411!16s%2Fg%2F11g8whvxvw!19sChIJu9nDIWXAwjsRH91dtyM0-sI?authuser=0&hl=en&rclk=1,Neha's Yummy Cake & Cafe,4.1,Bakery and Cake Shop,18.5201784,73.8543411
11,https://www.google.com/maps/place/Navchetanya+Bakery+%26+Snacks+Centre/data=!4m7!3m6!1s0x3bc2c00aaed8b0a1:0x8913c60e7d8e23e5!8m2!3d18.5050249!4d73.8424882!16s%2Fg%2F12nqgnf13!19sChIJobDYrgrAwjsR5SOOfQ7GE4k?authuser=0&hl=en&rclk=1,Navchetanya Bakery & Snacks Centre,0,Bakery and Cake Shop,18.5050249,73.8424882
12,https://www.google.com/maps/place/KIRAN+BAKERY/data=!4m7!3m6!1s0x3bc2c1e91feee837:0xd7edc28c1c8c74d8!8m2!3d18.5078379!4d73.8632844!16s%2Fg%2F11swwt2pwv!19sChIJN-juH-nBwjsR2HSMHIzC7dc?authuser=0&hl=en&rclk=1,KIRAN BAKERY,0,Bakery and Cake Shop,18.5078379,73.8632844
13,https://www.google.com/maps/place/Rolex+Bakery/data=!4m7!3m6!1s0x3bc2c0150f90b2ef:0x6c12153370249185!8m2!3d18.5050699!4d73.8632935!16s%2Fg%2F11r9msjzm!19sChIJ77KQDxXAwjsRhZEkcDMVEmw?authuser=0&hl=en&rclk=1,Rolex Bakery,0,Bakery and Cake Shop,18.5050699,73.8632935
14,https://www.google.com/maps/place/Nilofar+Bakery+%26+General+Store/data=!4m7!3m6!1s0x3bc2bf9d8bdd2ff7:0xd8d77a3e83464521!8m2!3d18.5269039!4d73.826057!16s%2Fg%2F11b6_ncjqg!19sChIJ9y_di52_wjsRIUVGgz5619g?authuser=0&hl=en&rclk=1,Nilofar Bakery & General Store,4.1,Bakery and Cake Shop,18.5269039,73.826057
15,https://www.google.com/maps/place/Rahul+Bakery+%26+General+Store%27s/data=!4m7!3m6!1s0x3bc2bf76211ecf03:0x974453a5e7eecbbc!8m2!3d18.5268322!4d73.8264427!16s%2Fg%2F11cm4ds1pp!19sChIJA88eIXa_wjsRvMvu56VTRJc?authuser=0&hl=en&rclk=1,Rahul Bakery & General Store's,4.4,Bakery and Cake Shop,18.5268322,73.8264427
16,https://www.google.com/maps/place/Ganesh+Bakery+%26+General+Store/data=!4m7!3m6!1s0x3bc2bf7601da622f:0xf4c4805cfaea1724!8m2!3d18.5270761!4d73.824497!16s%2Fg%2F1pp2tyzlz!19sChIJL2LaAXa_wjsRJBfq-lyAxPQ?authuser=0&hl=en&rclk=1,Ganesh Bakery & General Store,2.8,Bakery and Cake Shop,18.5270761,73.824497
17,https://www.google.com/maps/place/Ganesh+Pan+Merchant/data=!4m7!3m6!1s0x3bc2bf764c741185:0x46f3c48ac78fda22!8m2!3d18.5289897!4d73.8271526!16s%2Fg%2F1pp2vc25v!19sChIJhRF0THa_wjsRItqPx4rE80Y?authuser=0&hl=en&rclk=1,Ganesh Pan Merchant,0,Bakery and Cake Shop,18.5289897,73.8271526
18,https://www.google.com/maps/place/Kavita+Bakery+%26+Super+Market/data=!4m7!3m6!1s0x3bc2bf75cdf4585b:0xea111785fc733bf0!8m2!3d18.529541!4d73.823512!16s%2Fg%2F1pp2vd_bz!19sChIJW1j0zXW_wjsR8Dtz_IUXEeo?authuser=0&hl=en&rclk=1,Kavita Bakery & Super Market,4.3,Bakery and Cake Shop,18.529541,73.823512
19,https://www.google.com/maps/place/Bharat+Bakery/data=!4m7!3m6!1s0x3bc2bf7794f4e3b7:0x56bbc5e8a3ff512d!8m2!3d18.5289393!4d73.8289428!16s%2Fg%2F11t55_3qq9!19sChIJt-P0lHe_wjsRLVH_o-jFu1Y?authuser=0&hl=en&rclk=1,Bharat Bakery,0,Bakery and Cake Shop,18.5289393,73.8289428
20,https://www.google.com/maps/place/Ganesh+Bakery+and+General+Stores/data=!4m7!3m6!1s0x3bc2c0672515c681:0x3f86728f2e1f649b!8m2!3d18.523892!4d73.862937!16s%2Fg%2F1tlbmlsq!19sChIJgcYVJWfAwjsRm2QfLo9yhj8?authuser=0&hl=en&rclk=1,Ganesh Bakery and General Stores,4.1,Bakery and Cake Shop,18.523892,73.862937
21,https://www.google.com/maps/place/Ajay+Bakery+And+Snacks/data=!4m7!3m6!1s0x3bc2c065d99a9a6b:0x14e2f73ba1ba4125!8m2!3d18.5206155!4d73.8590294!16s%2Fg%2F1pp2tydnk!19sChIJa5qa2WXAwjsRJUG6oTv34hQ?authuser=0&hl=en&rclk=1,Ajay Bakery And Snacks,4.5,Bakery and Cake Shop,18.5206155,73.8590294
22,https://www.google.com/maps/place/Alankar+Bakery+%26+General+Stores/data=!4m7!3m6!1s0x3bc2c0642bf49fb9:0xc93f04ac9aff5157!8m2!3d18.521694!4d73.859204!16s%2Fg%2F11ckvl4nps!19sChIJuZ_0K2TAwjsRV1H_mqwEP8k?authuser=0&hl=en&rclk=1,Alankar Bakery & General Stores,2.3,Bakery and Cake Shop,18.521694,73.859204
23,https://www.google.com/maps/place/WS+bakers+Kasba+peth/data=!4m7!3m6!1s0x3bc2c1a02d995dfd:0x1c28ba6061911fa7!8m2!3d18.5203953!4d73.8576805!16s%2Fg%2F11q9m1lcqy!19sChIJ_V2ZLaDBwjsRpx-RYWC6KBw?authuser=0&hl=en&rclk=1,WS bakers Kasba peth,4,Bakery and Cake Shop,18.5203953,73.8576805
24,https://www.google.com/maps/place/Maharashtra+Bakery+And+General+Shop/data=!4m7!3m6!1s0x3bc2c066cf747c41:0xc9e95de2fdadfad1!8m2!3d18.5238603!4d73.8615493!16s%2Fg%2F11c6ffxv1s!19sChIJQXx0z2bAwjsR0fqt_eJd6ck?authuser=0&hl=en&rclk=1,Maharashtra Bakery And General Shop,0,Bakery and Cake Shop,18.5238603,73.8615493
25,https://www.google.com/maps/place/bakeryworld/data=!4m7!3m6!1s0x3bc2ea8c0f91e39d:0x63c7020debd72782!8m2!3d18.5199387!4d73.856886!16s%2Fg%2F11bc73pw3q!19sChIJneORD4zqwjsRgifX6w0Cx2M?authuser=0&hl=en&rclk=1,bakeryworld,3,Bakery and Cake Shop,18.5199387,73.856886
26,https://www.google.com/maps/place/Madina+Bakery/data=!4m7!3m6!1s0x3bc2c066ae6daf99:0x98b027b879e1b5d9!8m2!3d18.5239588!4d73.8600795!16s%2Fg%2F11ckqswvzy!19sChIJma9trmbAwjsR2bXhebgnsJg?authuser=0&hl=en&rclk=1,Madina Bakery,3.7,Bakery and Cake Shop,18.5239588,73.8600795
27,https://www.google.com/maps/place/Sadaanadnagar/data=!4m7!3m6!1s0x3bc2c14a486bc747:0x139951c530757436!8m2!3d18.5239981!4d73.8646404!16s%2Fg%2F11v9mp0xxs!19sChIJR8drSErBwjsRNnR1MMVRmRM?authuser=0&hl=en&rclk=1,Sadaanadnagar,0,Bakery and Cake Shop,18.5239981,73.8646404
28,https://www.google.com/maps/place/Friends+Bakers/data=!4m7!3m6!1s0x3bc2c0643469556d:0x2922ad268fe3af1e!8m2!3d18.5215952!4d73.8584138!16s%2Fg%2F1pp2tydbm!19sChIJbVVpNGTAwjsRHq_jjyatIik?authuser=0&hl=en&rclk=1,Friends Bakers,4.2,Bakery and Cake Shop,18.5215952,73.8584138
29,https://www.google.com/maps/place/Galaxy+Xerox/data=!4m7!3m6!1s0x3bc2c1523216ee31:0x5ad4032158ce86e!8m2!3d18.5234169!4d73.8694203!16s%2Fg%2F11tdw41fnx!19sChIJMe4WMlLBwjsRbuiMFTJArQU?authuser=0&hl=en&rclk=1,Galaxy Xerox,0,Bakery and Cake Shop,18.5234169,73.8694203
30,https://www.google.com/maps/place/Pratapgad+Bakery/data=!4m7!3m6!1s0x3bc2c0673f0d1709:0xde7d1b27c7093000!8m2!3d18.5234724!4d73.8637626!16s%2Fg%2F1pp2wzhch!19sChIJCRcNP2fAwjsRADAJxycbfd4?authuser=0&hl=en&rclk=1,Pratapgad Bakery,0,Bakery and Cake Shop,18.5234724,73.8637626
31,https://www.google.com/maps/place/Shree+Foods/data=!4m7!3m6!1s0x3bc2c0726b64d3a7:0xbdd94bfb6c4924bb!8m2!3d18.5106215!4d73.8525331!16s%2Fg%2F1vhq24ln!19sChIJp9Nka3LAwjsRuyRJbPtL2b0?authuser=0&hl=en&rclk=1,Shree Foods,0,Bakery and Cake Shop,18.5106215,73.8525331
32,https://www.google.com/maps/place/Shifa+Bakery/data=!4m7!3m6!1s0x3bc2c0697034bf6f:0xe7e6b753277e69f9!8m2!3d18.5139246!4d73.8618334!16s%2Fg%2F1pp2wzlj5!19sChIJb780cGnAwjsR-Wl-J1O35uc?authuser=0&hl=en&rclk=1,Shifa Bakery,3,Bakery and Cake Shop,18.5139246,73.8618334
33,https://www.google.com/maps/place/Super+quality+bakery/data=!4m7!3m6!1s0x3bc2c108b3c898bf:0xdc5ac1ee32191bdc!8m2!3d18.5169352!4d73.8618437!16s%2Fg%2F11tfwrm23v!19sChIJv5jIswjBwjsR3BsZMu7BWtw?authuser=0&hl=en&rclk=1,Super quality bakery,0,Bakery and Cake Shop,18.5169352,73.8618437
34,https://www.google.com/maps/place/NILE+BAKERS/data=!4m7!3m6!1s0x3bc2c06ba3dbaa81:0xf96416410adefa6b!8m2!3d18.5105928!4d73.8618726!16s%2Fg%2F11bydjk7vk!19sChIJgarbo2vAwjsRa_reCkEWZPk?authuser=0&hl=en&rclk=1,NILE BAKERS,4.3,Bakery and Cake Shop,18.5105928,73.8618726
35,https://www.google.com/maps/place/Bhawani+Dairy/data=!4m7!3m6!1s0x3bc2c17a6804f191:0x970102476c31d186!8m2!3d18.5131844!4d73.8611205!16s%2Fg%2F11hyxqxsz7!19sChIJkfEEaHrBwjsRhtExbEcCAZc?authuser=0&hl=en&rclk=1,Bhawani Dairy,0,Bakery and Cake Shop,18.5131844,73.8611205
36,https://www.google.com/maps/place/Roat+Bakery/data=!4m7!3m6!1s0x3bc2c069735ac6af:0xd483bc401eaae130!8m2!3d18.5140274!4d73.8618186!16s%2Fg%2F11g893cb6_!19sChIJr8Zac2nAwjsRMOGqHkC8g9Q?authuser=0&hl=en&rclk=1,Roat Bakery,4.3,Bakery and Cake Shop,18.5140274,73.8618186
37,https://www.google.com/maps/place/Cake+Shop/data=!4m7!3m6!1s0x3bc2c19ed3898315:0x13f0adc8ed0d5829!8m2!3d18.5104449!4d73.8617447!16s%2Fg%2F11hz57d30v!19sChIJFYOJ057BwjsRKVgN7cit8BM?authuser=0&hl=en&rclk=1,Cake Shop,4.3,Bakery and Cake Shop,18.5104449,73.8617447
38,https://www.google.com/maps/place/Jadhav+Snack+Center/data=!4m7!3m6!1s0x3bc2c126af4c46d3:0x3dfa00cdfc388345!8m2!3d18.5153348!4d73.8625988!16s%2Fg%2F11tk8xcqzn!19sChIJ00ZMrybBwjsRRYM4_M0A-j0?authuser=0&hl=en&rclk=1,Jadhav Snack Center,0,Bakery and Cake Shop,18.5153348,73.8625988
39,https://www.google.com/maps/place/Bobby+Bakery/data=!4m7!3m6!1s0x3bc2c0479da9574b:0xd7bc02e29e788063!8m2!3d18.5092632!4d73.8744039!16s%2Fg%2F11dxh_6kyb!19sChIJS1epnUfAwjsRY4B4nuICvNc?authuser=0&hl=en&rclk=1,Bobby Bakery,4,Bakery and Cake Shop,18.5092632,73.8744039
40,https://www.google.com/maps/place/The+cake+shop/data=!4m7!3m6!1s0x3bc2c112a4255e19:0xae37dc9b1ad73513!8m2!3d18.5088996!4d73.8745725!16s%2Fg%2F11r0f8rwb4!19sChIJGV4lpBLBwjsREzXXGpvcN64?authuser=0&hl=en&rclk=1,The cake shop,0,Bakery and Cake Shop,18.5088996,73.8745725
41,https://www.google.com/maps/place/Sunrise+Bakery/data=!4m7!3m6!1s0x3bc2c047fe0bcf5f:0xb0c16b07b05d4bfb!8m2!3d18.5088967!4d73.8771499!16s%2Fg%2F11d_2b3rtq!19sChIJX88L_kfAwjsR-0tdsAdrwbA?authuser=0&hl=en&rclk=1,Sunrise Bakery,4.1,Bakery and Cake Shop,18.5088967,73.8771499
42,https://www.google.com/maps/place/The+Hindu+Bakery+and+Cafe/data=!4m7!3m6!1s0x3bc2c1b4577255fb:0x4997dfef577ba6e6!8m2!3d18.5108498!4d73.8522927!16s%2Fg%2F11ngtgxl5j!19sChIJ-1VyV7TBwjsR5qZ7V-_fl0k?authuser=0&hl=en&rclk=1,The Hindu Bakery and Cafe,4.7,Bakery and Cake Shop,18.5108498,73.8522927
43,https://www.google.com/maps/place/SP+CAKE+%26+CAF%C3%89/data=!4m7!3m6!1s0x3bc2c1b3f967d59d:0x3e0dd9cccdd96988!8m2!3d18.5072071!4d73.8513826!16s%2Fg%2F11jy4l7_np!19sChIJndVn-bPBwjsRiGnZzczZDT4?authuser=0&hl=en&rclk=1,SP CAKE & CAFÉ,4.3,Bakery and Cake Shop,18.5072071,73.8513826
44,https://www.google.com/maps/place/Diamond+Bakery+And+General+Stores/data=!4m7!3m6!1s0x3bc2c0f14cb9289d:0xa84a382da251a2bd!8m2!3d18.5370096!4d73.8723345!16s%2Fg%2F1pp2tx36d!19sChIJnSi5TPHAwjsRvaJRoi04Sqg?authuser=0&hl=en&rclk=1,Diamond Bakery And General Stores,3.5,Bakery and Cake Shop,18.5370096,73.8723345
45,https://www.google.com/maps/place/Siddhivinayak+food+services/data=!4m7!3m6!1s0x3bc2c1565ad71aaf:0xd181eb1c2b148424!8m2!3d18.5289461!4d73.8736218!16s%2Fg%2F11svjsgr7z!19sChIJrxrXWlbBwjsRJIQUKxzrgdE?authuser=0&hl=en&rclk=1,Siddhivinayak food services,1,Bakery and Cake Shop,18.5289461,73.8736218
46,https://www.google.com/maps/place/Indian+Bakers/data=!4m7!3m6!1s0x3bc2c1e3f19e59cf:0xd214f9f12e3a1d62!8m2!3d18.5403497!4d73.8645652!16s%2Fg%2F11rkgpwmbd!19sChIJz1me8ePBwjsRYh06LvH5FNI?authuser=0&hl=en&rclk=1,Indian Bakers,4.4,Bakery and Cake Shop,18.5403497,73.8645652
47,https://www.google.com/maps/place/Dilkhush+Bakery/data=!4m7!3m6!1s0x3bc2c0f6c2a55c53:0xac2382e09046f513!8m2!3d18.5356174!4d73.8734732!16s%2Fg%2F1pp2tx2kq!19sChIJU1ylwvbAwjsRE_VGkOCCI6w?authuser=0&hl=en&rclk=1,Dilkhush Bakery,0,Bakery and Cake Shop,18.5356174,73.8734732
48,https://www.google.com/maps/place/Zainab+Bakery+Store+And+Provision+Store/data=!4m7!3m6!1s0x3bc2c0f13ce9a11d:0x808e9be4ebfe8250!8m2!3d18.5382491!4d73.8734488!16s%2Fg%2F1pyd048qw!19sChIJHaHpPPHAwjsRUIL-6-SbjoA?authuser=0&hl=en&rclk=1,Zainab Bakery Store And Provision Store,4.8,Bakery and Cake Shop,18.5382491,73.8734488
49,https://www.google.com/maps/place/Western+Bekary/data=!4m7!3m6!1s0x3bc2c0f14abd14b3:0x281d0cca6554abfb!8m2!3d18.5371388!4d73.8726517!16s%2Fg%2F1pp2tx32_!19sChIJsxS9SvHAwjsR-6tUZcoMHSg?authuser=0&hl=en&rclk=1,Western Bekary,4.3,Bakery and Cake Shop,18.5371388,73.8726517
50,https://www.google.com/maps/place/SHAMA+BAKERY+AND+GENRAL+STORE/data=!4m7!3m6!1s0x3bc2c1524928f105:0xf6fe3a297e8a7df!8m2!3d18.5313348!4d73.875414!16s%2Fg%2F11pyzf2n3w!19sChIJBfEoSVLBwjsR36fol6Ljbw8?authuser=0&hl=en&rclk=1,SHAMA BAKERY AND GENRAL STORE,3,Bakery and Cake Shop,18.5313348,73.875414
51,https://www.google.com/maps/place/A-One+Bakery+%26+Ganral+%E0%A4%AC%E0%A5%87%E0%A4%95%E0%A4%B0%E0%A5%80+%E0%A4%90%E0%A4%82%E0%A4%A1+%E0%A4%9C%E0%A4%B0%E0%A4%A8%E0%A4%B2+%E0%A4%B8%E0%A5%8D%E0%A4%9F%E0%A5%8B%E0%A4%B0/data=!4m7!3m6!1s0x3bc2c1f4f0d3b03b:0x4d920c95c0d04dc1!8m2!3d18.5360674!4d73.8736808!16s%2Fg%2F11t04tsk9p!19sChIJO7DT8PTBwjsRwU3QwJUMkk0?authuser=0&hl=en&rclk=1,A-One Bakery & Ganral बेकरी ऐंड जरनल स्टोर,5,Bakery and Cake Shop,18.5360674,73.8736808
52,https://www.google.com/maps/place/Just+Baked+Bakers+%26+Confectioners+%28Pune%29+Private+Limited/data=!4m7!3m6!1s0x3bc2c0f9b4e3b5e3:0xbaa06ca6c9b42ee0!8m2!3d18.5357047!4d73.8762408!16s%2Fg%2F1wrghmhy!19sChIJ47XjtPnAwjsR4C60yaZsoLo?authuser=0&hl=en&rclk=1,Just Baked Bakers & Confectioners (Pune) Private Limited,4,Bakery and Cake Shop,18.5357047,73.8762408
53,https://www.google.com/maps/place/Caramella%27s+cake+shop/data=!4m7!3m6!1s0x3bc2c1f7d61d7cf9:0x4cc7a670d47f130f!8m2!3d18.5351364!4d73.8763999!16s%2Fg%2F11h439x2d4!19sChIJ-Xwd1vfBwjsRDxN_1HCmx0w?authuser=0&hl=en&rclk=1,Caramella's cake shop,4.4,Bakery and Cake Shop,18.5351364,73.8763999
54,https://www.google.com/maps/place/Viceroy+Bakery/data=!4m7!3m6!1s0x3bc2c057715565b7:0x8a9e170b16c8c768!8m2!3d18.5281046!4d73.8744283!16s%2Fg%2F1tdghqbg!19sChIJt2VVcVfAwjsRaMfIFgsXnoo?authuser=0&hl=en&rclk=1,Viceroy Bakery,3.8,Bakery and Cake Shop,18.5281046,73.8744283
55,https://www.google.com/maps/place/BrownCherry+Baker%27s+and+confectioners/data=!4m7!3m6!1s0x3bc2c1fda60eb76f:0x3ab5d775bf1d7541!8m2!3d18.5368365!4d73.8732163!16s%2Fg%2F11lt58_g2h!19sChIJb7cOpv3BwjsRQXUdv3XXtTo?authuser=0&hl=en&rclk=1,BrownCherry Baker's and confectioners,4.5,Bakery and Cake Shop,18.5368365,73.8732163
56,https://www.google.com/maps/place/Ribbons+And+Balloons+-+The+Cake+Shop/data=!4m7!3m6!1s0x3bc2c058396c3a63:0x4b6f7d21f54f933a!8m2!3d18.535089!4d73.877222!16s%2Fg%2F11bwl3tfrg!19sChIJYzpsOVjAwjsROpNP9SF9b0s?authuser=0&hl=en&rclk=1,Ribbons And Balloons - The Cake Shop,3.9,Bakery and Cake Shop,18.535089,73.877222
57,https://www.google.com/maps/place/New+Laxmi+Foods/data=!4m7!3m6!1s0x3bc2c06cca0b1677:0x37fe0e9c872a0f99!8m2!3d18.5073643!4d73.857988!16s%2Fg%2F11f0wrf28w!19sChIJdxYLymzAwjsRmQ8qh5wO_jc?authuser=0&hl=en&rclk=1,New Laxmi Foods,3.3,Bakery and Cake Shop,18.5073643,73.857988
58,https://www.google.com/maps/place/SAGAR+BAKERY+MODI+FOODS/data=!4m7!3m6!1s0x3bc2c06ce0152d73:0x18a336d00696fa53!8m2!3d18.5039795!4d73.8588453!16s%2Fg%2F11cjdy4pb7!19sChIJcy0V4GzAwjsRU_qWBtA2oxg?authuser=0&hl=en&rclk=1,SAGAR BAKERY MODI FOODS,4.2,Bakery and Cake Shop,18.5039795,73.8588453
59,https://www.google.com/maps/place/Abhijit+Bichukale+and+Son%27s/data=!4m7!3m6!1s0x3bc2c1482757c11f:0xbef285431eb0e821!8m2!3d18.5118483!4d73.8558983!16s%2Fg%2F11rhdcprc0!19sChIJH8FXJ0jBwjsRIeiwHkOF8r4?authuser=0&hl=en&rclk=1,Abhijit Bichukale and Son's,4.1,Bakery and Cake Shop,18.5118483,73.8558983
60,https://www.google.com/maps/place/Jadhav+Bakers/data=!4m7!3m6!1s0x3bc2c05c4e9a9d77:0x180ae7b6793e74b1!8m2!3d18.521528!4d73.864855!16s%2Fg%2F1tjv1z0h!19sChIJd52aTlzAwjsRsXQ-ebbnChg?authuser=0&hl=en&rclk=1,Jadhav Bakers,4.1,Bakery and Cake Shop,18.521528,73.864855
61,https://www.google.com/maps/place/Micail+Bakery+%26+Sweets/data=!4m7!3m6!1s0x3bc2c05c4e9a9d77:0xabd9d56a91ca16ae!8m2!3d18.5232055!4d73.868783!16s%2Fg%2F1tfj1mnk!19sChIJd52aTlzAwjsRrhbKkWrV2as?authuser=0&hl=en&rclk=1,Micail Bakery & Sweets,0,Bakery and Cake Shop,18.5232055,73.868783
62,https://www.google.com/maps/place/DSK+baker%27s/data=!4m7!3m6!1s0x3bc2c19109549a11:0x8353d9bfd762c87!8m2!3d18.5228929!4d73.8682656!16s%2Fg%2F11thjz2pnm!19sChIJEZpUCZHBwjsRhyx2_Zs9NQg?authuser=0&hl=en&rclk=1,DSK baker's,4.8,Bakery and Cake Shop,18.5228929,73.8682656
63,https://www.google.com/maps/place/Cake+And+Cream/data=!4m7!3m6!1s0x3bc2c05cf153eecf:0xb0eb4bb6e8ffe4d4!8m2!3d18.5218893!4d73.8694385!16s%2Fg%2F11tf41fw4t!19sChIJz-5T8VzAwjsR1OT_6LZL67A?authuser=0&hl=en&rclk=1,Cake And Cream,0,Bakery and Cake Shop,18.5218893,73.8694385
64,https://www.google.com/maps/place/Cosmos+Shreeji+Bakery/data=!4m7!3m6!1s0x3bc2c19cd99a55e3:0x7f1d83be73e1c4b!8m2!3d18.5218053!4d73.8621247!16s%2Fg%2F11sz2lbb30!19sChIJ41Wa2ZzBwjsRSxw-5zvY8Qc?authuser=0&hl=en&rclk=1,Cosmos Shreeji Bakery,0,Bakery and Cake Shop,18.5218053,73.8621247
65,https://www.google.com/maps/place/HOME+SAI/data=!4m7!3m6!1s0x3bc2c1d1a10181bd:0xd7ddec2ea62b647c!8m2!3d18.5202949!4d73.8645115!16s%2Fg%2F11sd736zxw!19sChIJvYEBodHBwjsRfGQrpi7s3dc?authuser=0&hl=en&rclk=1,HOME SAI,0,Bakery and Cake Shop,18.5202949,73.8645115
66,https://www.google.com/maps/place/U+P+Yaadgar+Bakery/data=!4m7!3m6!1s0x3bc2c015024c0873:0xf5c2f0760d638617!8m2!3d18.5049209!4d73.8627451!16s%2Fg%2F1pxq897zj!19sChIJcwhMAhXAwjsRF4ZjDXbwwvU?authuser=0&hl=en&rclk=1,U P Yaadgar Bakery,4.5,Bakery and Cake Shop,18.5049209,73.8627451
67,https://www.google.com/maps/place/Akshy+bhau/data=!4m7!3m6!1s0x3bc2c1816e59942d:0xe83f91b945550308!8m2!3d18.5018322!4d73.8635912!16s%2Fg%2F11l5nsrsp5!19sChIJLZRZboHBwjsRCANVRbmRP-g?authuser=0&hl=en&rclk=1,Akshy bhau,0,Bakery and Cake Shop,18.5018322,73.8635912
68,https://www.google.com/maps/place/Dhaneshwarpatidar/data=!4m7!3m6!1s0x3bc2c15e9ece9d37:0x857ce57688859edf!8m2!3d18.5077722!4d73.861837!16s%2Fg%2F11tjxm70md!19sChIJN53Onl7BwjsR356FiHblfIU?authuser=0&hl=en&rclk=1,Dhaneshwarpatidar,0,Bakery and Cake Shop,18.5077722,73.861837
69,https://www.google.com/maps/place/candy+and+sugar+bakery/data=!4m7!3m6!1s0x3bc2c1bf2a6b3193:0x825023cb6d48869b!8m2!3d18.5030706!4d73.86606!16s%2Fg%2F11v4rgtl92!19sChIJkzFrKr_BwjsRm4ZIbcsjUII?authuser=0&hl=en&rclk=1,candy and sugar bakery,0,Bakery and Cake Shop,18.5030706,73.86606
70,https://www.google.com/maps/place/Baker%27s+point/data=!4m7!3m6!1s0x3bc2c1dd1ce281f9:0xbfae6f0f3e8a31ef!8m2!3d18.5053294!4d73.8634928!16s%2Fg%2F11stst_vv1!19sChIJ-YHiHN3BwjsR7zGKPg9vrr8?authuser=0&hl=en&rclk=1,Baker's point,0,Bakery and Cake Shop,18.5053294,73.8634928
71,https://www.google.com/maps/place/Gold+Star+Bakery/data=!4m7!3m6!1s0x3bc2c016ecdb3565:0xabd92ecb0a827df7!8m2!3d18.5001613!4d73.8634138!16s%2Fg%2F1pp2wznv1!19sChIJZTXb7BbAwjsR932CCssu2as?authuser=0&hl=en&rclk=1,Gold Star Bakery,4.4,Bakery and Cake Shop,18.5001613,73.8634138
72,https://www.google.com/maps/place/Sunshine+Beauty+Centre+Pune/data=!4m7!3m6!1s0x3bc2c04f97633fc7:0xc24d5e3c5452b452!8m2!3d18.5184475!4d73.878467!16s%2Fg%2F1th80d4b!19sChIJxz9jl0_AwjsRUrRSVDxeTcI?authuser=0&hl=en&rclk=1,Sunshine Beauty Centre Pune,4.6,Beauty Parlour,18.5184475,73.878467
73,https://www.google.com/maps/place/Sos+Secret+Of+Skin+Beauty+Centre/data=!4m7!3m6!1s0x3bc2c04fbd20df31:0xa96978bf46fb1ce4!8m2!3d18.5181589!4d73.8788328!16s%2Fg%2F11t6sbc75m!19sChIJMd8gvU_AwjsR5Bz7Rr94aak?authuser=0&hl=en&rclk=1,Sos Secret Of Skin Beauty Centre,5,Beauty Parlour,18.5181589,73.8788328
74,https://www.google.com/maps/place/Zaroorat+The+Beauty+Shopee/data=!4m7!3m6!1s0x3bc2c0461f000001:0xb3bef617dbb8f8eb!8m2!3d18.5130674!4d73.8770063!16s%2Fg%2F11kb4bwzh5!19sChIJAQAAH0bAwjsR6_i42xf2vrM?authuser=0&hl=en&rclk=1,Zaroorat The Beauty Shopee,0,Beauty Parlour,18.5130674,73.8770063
75,"https://www.google.com/maps/place/Febina+International+Salon,+Academy+%26+Shoppe/data=!4m7!3m6!1s0x3bc2c04fa2955555:0x303698d9311b2625!8m2!3d18.518134!4d73.8787876!16s%2Fg%2F11f15lhsv1!19sChIJVVWVok_AwjsRJSYbMdmYNjA?authuser=0&hl=en&rclk=1","Febina International Salon, Academy & Shoppe",4.7,Beauty Parlour,18.518134,73.8787876
76,https://www.google.com/maps/place/COLORFUL+SECRETS/data=!4m7!3m6!1s0x3bc2c04f0aeabd3b:0xa4e7df21445600be!8m2!3d18.5173109!4d73.878706!16s%2Fg%2F12hm_4fff!19sChIJO73qCk_AwjsRvgBWRCHf56Q?authuser=0&hl=en&rclk=1,COLORFUL SECRETS,5,Beauty Parlour,18.5173109,73.878706
77,"https://www.google.com/maps/place/MISBU+-+SGS+Mall,+Camp,+Pune/data=!4m7!3m6!1s0x3bc2c160be4c7d5b:0x67cfe7a47bd9a3c9!8m2!3d18.5194006!4d73.8774003!16s%2Fg%2F11khrjxkyg!19sChIJW31MvmDBwjsRyaPZe6Tnz2c?authuser=0&hl=en&rclk=1","MISBU - SGS Mall, Camp, Pune",3.3,Beauty Parlour,18.5194006,73.8774003
78,https://www.google.com/maps/place/Himalaya+Wellness+Store/data=!4m7!3m6!1s0x3bc2c048ea69fc37:0x63252c21f0e5dd11!8m2!3d18.5174492!4d73.8791309!16s%2Fg%2F1tf6knbc!19sChIJN_xp6kjAwjsREd3l8CEsJWM?authuser=0&hl=en&rclk=1,Himalaya Wellness Store,4.3,Beauty Parlour,18.5174492,73.8791309
79,https://www.google.com/maps/place/Uday+Beauty+Store/data=!4m7!3m6!1s0x3bc2c1191a65fccf:0x3e19812acd5953fe!8m2!3d18.5169364!4d73.8627937!16s%2Fg%2F11q1pf1y1t!19sChIJz_xlGhnBwjsR_lNZzSqBGT4?authuser=0&hl=en&rclk=1,Uday Beauty Store,5,Beauty Parlour,18.5169364,73.8627937
80,https://www.google.com/maps/place/Variety+Beauty/data=!4m7!3m6!1s0x3bc2c06fbee4cc51:0x104da295208dce84!8m2!3d18.5164754!4d73.8553957!16s%2Fg%2F1pp2vmpl6!19sChIJUczkvm_AwjsRhM6NIJWiTRA?authuser=0&hl=en&rclk=1,Variety Beauty,4.3,Beauty Parlour,18.5164754,73.8553957
81,https://www.google.com/maps/place/Beauty+pride+shop/data=!4m7!3m6!1s0x3bc2c17413fb59c5:0xe7a70c0284791af4!8m2!3d18.5128664!4d73.8584344!16s%2Fg%2F11j0v0h8_p!19sChIJxVn7E3TBwjsR9Bp5hAIMp-c?authuser=0&hl=en&rclk=1,Beauty pride shop,4.6,Beauty Parlour,18.5128664,73.8584344
82,https://www.google.com/maps/place/Rajasthan+Beauty+Products/data=!4m7!3m6!1s0x3bc2c1f083a43db9:0x9ab9cbf199ed64e8!8m2!3d18.5159733!4d73.8546261!16s%2Fg%2F11f5_h1dgv!19sChIJuT2kg_DBwjsR6GTtmfHLuZo?authuser=0&hl=en&rclk=1,Rajasthan Beauty Products,4.9,Beauty Parlour,18.5159733,73.8546261
83,https://www.google.com/maps/place/Suleshwari+The+Beauty/data=!4m7!3m6!1s0x3bc2c0694f80eff3:0x8ad7f9c401483133!8m2!3d18.517421!4d73.8612453!16s%2Fg%2F1pp2wzcs5!19sChIJ8--AT2nAwjsRMzFIAcT514o?authuser=0&hl=en&rclk=1,Suleshwari The Beauty,5,Beauty Parlour,18.517421,73.8612453
84,https://www.google.com/maps/place/Nita+Nx/data=!4m7!3m6!1s0x3bc2c06948546ae5:0xdeae4bcab144fa05!8m2!3d18.5141225!4d73.8600762!16s%2Fg%2F11tf41g_1r!19sChIJ5WpUSGnAwjsRBfpEscpLrt4?authuser=0&hl=en&rclk=1,Nita Nx,0,Beauty Parlour,18.5141225,73.8600762
85,https://www.google.com/maps/place/Indrani+Cosmetics/data=!4m7!3m6!1s0x3bc2c06fc8567509:0x801c8c173fc5cf91!8m2!3d18.5161812!4d73.8548472!16s%2Fg%2F1vm_wbgc!19sChIJCXVWyG_AwjsRkc_FPxeMHIA?authuser=0&hl=en&rclk=1,Indrani Cosmetics,4.9,Beauty Parlour,18.5161812,73.8548472
86,https://www.google.com/maps/place/Sheetal+beauty+centre/data=!4m7!3m6!1s0x3bc2c127ddd500cf:0x791ef138342e52e9!8m2!3d18.5159317!4d73.8580536!16s%2Fg%2F11vf6tvknb!19sChIJzwDV3SfBwjsR6VIuNDjxHnk?authuser=0&hl=en&rclk=1,Sheetal beauty centre,5,Beauty Parlour,18.5159317,73.8580536
87,https://www.google.com/maps/place/Kshitij+Beauty+Parlour+%26+Bhawani+Enterprises/data=!4m7!3m6!1s0x3bc2c119058b372d:0xe70c6b11f898600e!8m2!3d18.5092455!4d73.8721177!16s%2Fg%2F11qnqznmwr!19sChIJLTeLBRnBwjsRDmCY-BFrDOc?authuser=0&hl=en&rclk=1,Kshitij Beauty Parlour & Bhawani Enterprises,4.8,Beauty Parlour,18.5092455,73.8721177
88,https://www.google.com/maps/place/Yuga%27s+Beauty+Salon/data=!4m7!3m6!1s0x3bc2c18400b2741b:0xc305b853ddde47eb!8m2!3d18.5090442!4d73.8625366!16s%2Fg%2F11pm49_7xd!19sChIJG3SyAITBwjsR60fe3VO4BcM?authuser=0&hl=en&rclk=1,Yuga's Beauty Salon,5,Beauty Parlour,18.5090442,73.8625366
89,https://www.google.com/maps/place/Tulsi+Beauty+Parlour/data=!4m7!3m6!1s0x3bc2c1520aead387:0x96885aa9e7385956!8m2!3d18.5085717!4d73.8653869!16s%2Fg%2F11jr57k4cz!19sChIJh9PqClLBwjsRVlk456laiJY?authuser=0&hl=en&rclk=1,Tulsi Beauty Parlour,0,Beauty Parlour,18.5085717,73.8653869
90,https://www.google.com/maps/place/Heer+Beauty+Center/data=!4m7!3m6!1s0x3bc2c06963ee41b9:0x9fbf3d4f9ab7b3ea!8m2!3d18.513294!4d73.8614937!16s%2Fg%2F1pp2wzlwb!19sChIJuUHuY2nAwjsR6rO3mk89v58?authuser=0&hl=en&rclk=1,Heer Beauty Center,3.9,Beauty Parlour,18.513294,73.8614937
91,https://www.google.com/maps/place/The+Little+Sunshine/data=!4m7!3m6!1s0x3bc2c043fee8babf:0x96c5d526a09f7c65!8m2!3d18.514062!4d73.871077!16s%2Fg%2F11q5856tv3!19sChIJv7ro_kPAwjsRZXyfoCbVxZY?authuser=0&hl=en&rclk=1,The Little Sunshine,0,Beauty Parlour,18.514062,73.871077
92,https://www.google.com/maps/place/Diamond+Trading+Company/data=!4m7!3m6!1s0x3bc2c069e48e5687:0xf7b67c70386af99a!8m2!3d18.514148!4d73.865003!16s%2Fg%2F11sj8lrl3w!19sChIJh1aO5GnAwjsRmvlqOHB8tvc?authuser=0&hl=en&rclk=1,Diamond Trading Company,0,Beauty Parlour,18.514148,73.865003
93,https://www.google.com/maps/place/Surabhi+Beauty+Parlour+%26+Ladies+Shopee/data=!4m7!3m6!1s0x3bc2c17fb76bf959:0x21113a02aaddcb89!8m2!3d18.5116947!4d73.8648783!16s%2Fg%2F11fcszsv67!19sChIJWflrt3_BwjsRicvdqgI6ESE?authuser=0&hl=en&rclk=1,Surabhi Beauty Parlour & Ladies Shopee,5,Beauty Parlour,18.5116947,73.8648783
94,https://www.google.com/maps/place/Shanti+Enterprises/data=!4m7!3m6!1s0x3bc2c1c319c9dec3:0xb9c3d8df380600b6!8m2!3d18.5144313!4d73.8653833!16s%2Fg%2F11j_17lhjs!19sChIJw97JGcPBwjsRtgAGON_Yw7k?authuser=0&hl=en&rclk=1,Shanti Enterprises,0,Beauty Parlour,18.5144313,73.8653833
95,https://www.google.com/maps/place/Pranali+Bridal+World/data=!4m7!3m6!1s0x3bc2c01530699705:0xfd2549ed4581ec1a!8m2!3d18.5067728!4d73.8633291!16s%2Fg%2F11t55_7b6k!19sChIJBZdpMBXAwjsRGuyBRe1JJf0?authuser=0&hl=en&rclk=1,Pranali Bridal World,0,Beauty Parlour,18.5067728,73.8633291
96,https://www.google.com/maps/place/JSK+BEAUTY+AND+SALON+SOLUTIONS/data=!4m7!3m6!1s0x3bc2c127c0aa7349:0x8363f1ba39a2daf2!8m2!3d18.5055374!4d73.85653!16s%2Fg%2F11ty6p27l2!19sChIJSXOqwCfBwjsR8tqiObrxY4M?authuser=0&hl=en&rclk=1,JSK BEAUTY AND SALON SOLUTIONS,5,Beauty Parlour,18.5055374,73.85653
97,https://www.google.com/maps/place/RR+MAKE+UP+STUDIO+%26+BEAUTY+SALON/data=!4m7!3m6!1s0x3bc2c041cf2f4607:0x3d8671e0a9fa5e7!8m2!3d18.5110842!4d73.8664864!16s%2Fg%2F11vk8bwh3q!19sChIJB0Yvz0HAwjsR56WfCh5n2AM?authuser=0&hl=en&rclk=1,RR MAKE UP STUDIO & BEAUTY SALON,0,Beauty Parlour,18.5110842,73.8664864
98,https://www.google.com/maps/place/Soundarya+Beauty+Parlour/data=!4m7!3m6!1s0x3bc2c041ec4664d3:0xe97648cd2e821648!8m2!3d18.5123325!4d73.8665137!16s%2Fg%2F1pp2tvs1d!19sChIJ02RG7EHAwjsRSBaCLs1Iduk?authuser=0&hl=en&rclk=1,Soundarya Beauty Parlour,3.9,Beauty Parlour,18.5123325,73.8665137
99,https://www.google.com/maps/place/Tanvi+Beauty+Parlour/data=!4m7!3m6!1s0x3bc2c040337d3621:0x9d1b70de672ead8c!8m2!3d18.510398!4d73.8665263!16s%2Fg%2F11shd0m7f9!19sChIJITZ9M0DAwjsRjK0uZ95wG50?authuser=0&hl=en&rclk=1,Tanvi Beauty Parlour,0,Beauty Parlour,18.510398,73.8665263
100,https://www.google.com/maps/place/So+Bhagyashree+Ladies+Beauty+Parlour+and+Tailor+and+Stores/data=!4m7!3m6!1s0x3bc2c0421466d917:0xf8479860a9fcfba2!8m2!3d18.5146288!4d73.866612!16s%2Fg%2F1pp2w_ql0!19sChIJF9lmFELAwjsRovv8qWCYR_g?authuser=0&hl=en&rclk=1,So Bhagyashree Ladies Beauty Parlour and Tailor and Stores,0,Beauty Parlour,18.5146288,73.866612
101,https://www.google.com/maps/place/R+K+Makeup+Studio+%26+Beauty+Salon/data=!4m7!3m6!1s0x3bc2c041c5ef84e7:0x93d2fcad3f46d1dd!8m2!3d18.5113055!4d73.8664837!16s%2Fg%2F11tx248649!19sChIJ54TvxUHAwjsR3dFGP6380pM?authuser=0&hl=en&rclk=1,R K Makeup Studio & Beauty Salon,0,Beauty Parlour,18.5113055,73.8664837
102,https://www.google.com/maps/place/Look+Touch+Beauty+Parlour/data=!4m7!3m6!1s0x3bc2c06b1bca5555:0x5c582128bcecd2a7!8m2!3d18.5091349!4d73.8619495!16s%2Fg%2F11kb4c3nrk!19sChIJVVXKG2vAwjsRp9LsvCghWFw?authuser=0&hl=en&rclk=1,Look Touch Beauty Parlour,0,Beauty Parlour,18.5091349,73.8619495
103,https://www.google.com/maps/place/Viva+Beauty+Spot/data=!4m7!3m6!1s0x3bc2c015b26b6901:0x958a00972c1f902e!8m2!3d18.5036625!4d73.8627941!16s%2Fg%2F11t55_4lqh!19sChIJAWlrshXAwjsRLpAfLJcAipU?authuser=0&hl=en&rclk=1,Viva Beauty Spot,0,Beauty Parlour,18.5036625,73.8627941
104,https://www.google.com/maps/place/Samruddhi+Enterprises/data=!4m7!3m6!1s0x3bc2c07c89cabda3:0x1df2637542f2bd66!8m2!3d18.524472!4d73.850816!16s%2Fg%2F1wcxbjv0!19sChIJo73KiXzAwjsRZr3yQnVj8h0?authuser=0&hl=en&rclk=1,Samruddhi Enterprises,4.6,Beauty Parlour,18.524472,73.850816
105,https://www.google.com/maps/place/BEAUTY+ESSENTIALS/data=!4m7!3m6!1s0x3bc2c1f44d14e951:0x46720251ff2586d0!8m2!3d18.5141086!4d73.8619558!16s%2Fg%2F11lfzlt4vk!19sChIJUekUTfTBwjsR0IYl_1ECckY?authuser=0&hl=en&rclk=1,BEAUTY ESSENTIALS,5,Beauty Parlour,18.5141086,73.8619558
106,https://www.google.com/maps/place/Pal+Makeup+Artist/data=!4m7!3m6!1s0x3bc2c10cfa4c9d8b:0x7ad818ce2dbe33eb!8m2!3d18.5112973!4d73.867374!16s%2Fg%2F11fpr9vjpl!19sChIJi51M-gzBwjsR6zO-Lc4Y2Ho?authuser=0&hl=en&rclk=1,Pal Makeup Artist,5,Beauty Parlour,18.5112973,73.867374
107,https://www.google.com/maps/place/Kamakshi+Beauty+Parlour/data=!4m7!3m6!1s0x3bc2c041c3041717:0xc78bb24e2ba9a001!8m2!3d18.5117935!4d73.8663434!16s%2Fg%2F1jmcd0xgj!19sChIJFxcEw0HAwjsRAaCpK06yi8c?authuser=0&hl=en&rclk=1,Kamakshi Beauty Parlour,0,Beauty Parlour,18.5117935,73.8663434
108,https://www.google.com/maps/place/Excellence+Mens+Salon/data=!4m7!3m6!1s0x3bc2c06ae60b38db:0x39a052ea00447982!8m2!3d18.5091432!4d73.8631365!16s%2Fg%2F11t55ztxb4!19sChIJ2zgL5mrAwjsRgnlEAOpSoDk?authuser=0&hl=en&rclk=1,Excellence Mens Salon,0,Beauty Parlour,18.5091432,73.8631365
109,https://www.google.com/maps/place/Innerglow+Beauty+Salon/data=!4m7!3m6!1s0x3bc2c03dee505eab:0x84bf6cebb906f272!8m2!3d18.5009375!4d73.8663125!16s%2Fg%2F11k4zrzb3b!19sChIJq15Q7j3AwjsRcvIGuetsv4Q?authuser=0&hl=en&rclk=1,Innerglow Beauty Salon,0,Beauty Parlour,18.5009375,73.8663125
110,https://www.google.com/maps/place/New+Gents+Parlour/data=!4m7!3m6!1s0x3bc2c06ae5ed4495:0x8a5801509f48d391!8m2!3d18.5092464!4d73.8631395!16s%2Fg%2F11t55zs186!19sChIJlUTt5WrAwjsRkdNIn1ABWIo?authuser=0&hl=en&rclk=1,New Gents Parlour,0,Beauty Parlour,18.5092464,73.8631395
111,https://www.google.com/maps/place/Ajit+Soap+Factory/data=!4m7!3m6!1s0x3bc2ea77a7457b51:0xe8c8848990c6fd48!8m2!3d18.5205081!4d73.8567695!16s%2Fg%2F1tdwy_69!19sChIJUXtFp3fqwjsRSP3GkImEyOg?authuser=0&hl=en&rclk=1,Ajit Soap Factory,0,Beauty Parlour,18.5205081,73.8567695
112,https://www.google.com/maps/place/Milap+Hair+Dressers/data=!4m7!3m6!1s0x3bc2c041236fe98d:0xeee30faddf338b8d!8m2!3d18.511372!4d73.86833!16s%2Fg%2F12lvg40tm!19sChIJjelvI0HAwjsRjYsz360P4-4?authuser=0&hl=en&rclk=1,Milap Hair Dressers,0,Beauty Parlour,18.511372,73.86833
113,https://www.google.com/maps/place/Navkar+Mens+Parlour/data=!4m7!3m6!1s0x3bc2c06b17b8ca7b:0xf951165666f6e0de!8m2!3d18.5087648!4d73.8616385!16s%2Fg%2F1pp2x5jnp!19sChIJe8q4F2vAwjsR3uD2ZlYWUfk?authuser=0&hl=en&rclk=1,Navkar Mens Parlour,4,Beauty Parlour,18.5087648,73.8616385
114,https://www.google.com/maps/place/Lavanya+Beauty+Salon/data=!4m7!3m6!1s0x3bc2bf75e2c2a2ab:0x2743ae8c4be76e4e!8m2!3d18.5275219!4d73.8244685!16s%2Fg%2F11cm68y6lw!19sChIJq6LC4nW_wjsRTm7nS4yuQyc?authuser=0&hl=en&rclk=1,Lavanya Beauty Salon,4.5,Beauty Parlour,18.5275219,73.8244685
115,https://www.google.com/maps/place/Glamour+Beauty+salon/data=!4m7!3m6!1s0x3bc2bfe7d8490141:0xdff90ff11656a96b!8m2!3d18.5244592!4d73.8268735!16s%2Fg%2F11tnj_jqp9!19sChIJQQFJ2Oe_wjsRa6lWFvEP-d8?authuser=0&hl=en&rclk=1,Glamour Beauty salon,4.9,Beauty Parlour,18.5244592,73.8268735
116,"https://www.google.com/maps/place/Wisteria+Salon+%28+For+Women+Only%29+%28Skin,+Hair,+Nail+and+MakeUp+Studio%29/data=!4m7!3m6!1s0x3bc2bf3a264c5f21:0xb77f6929cb92ee0d!8m2!3d18.5261359!4d73.826533!16s%2Fg%2F11h3ghpm1p!19sChIJIV9MJjq_wjsRDe6Syylpf7c?authuser=0&hl=en&rclk=1","Wisteria Salon ( For Women Only) (Skin, Hair, Nail and MakeUp Studio)",4.8,Beauty Parlour,18.5261359,73.826533
117,https://www.google.com/maps/place/DARPAN+BEAUTY+PARLOUR/data=!4m7!3m6!1s0x3bc2bf742d55bca7:0x5b956b7cdd222042!8m2!3d18.5298103!4d73.8235239!16s%2Fg%2F1pp2tktb6!19sChIJp7xVLXS_wjsRQiAi3XxrlVs?authuser=0&hl=en&rclk=1,DARPAN BEAUTY PARLOUR,4.9,Beauty Parlour,18.5298103,73.8235239
118,https://www.google.com/maps/place/Neeta+Beauty+Parlour/data=!4m7!3m6!1s0x3bc2bf2a958c2527:0x4ffd03a04ddc155e!8m2!3d18.5288558!4d73.8251362!16s%2Fg%2F11v4__xxdz!19sChIJJyWMlSq_wjsRXhXcTaAD_U8?authuser=0&hl=en&rclk=1,Neeta Beauty Parlour,5,Beauty Parlour,18.5288558,73.8251362
119,https://www.google.com/maps/place/Dehlia+Beauty+Parlour%28only+for+ladies%29/data=!4m7!3m6!1s0x3bc2bf9d23cb0051:0x4733a9c7fe4e589!8m2!3d18.524969!4d73.828868!16s%2Fg%2F1jkxkc962!19sChIJUQDLI52_wjsRieXkf5w6cwQ?authuser=0&hl=en&rclk=1,Dehlia Beauty Parlour(only for ladies),4.1,Beauty Parlour,18.524969,73.828868
120,https://www.google.com/maps/place/Shirin+Beauty+Parlor/data=!4m7!3m6!1s0x3bc2bf706e92f1a5:0xbc45ae320aabb56!8m2!3d18.5370764!4d73.8291711!16s%2Fg%2F1vwlml7k!19sChIJpfGSbnC_wjsRVruqIONaxAs?authuser=0&hl=en&rclk=1,Shirin Beauty Parlor,4,Beauty Parlour,18.5370764,73.8291711
121,https://www.google.com/maps/place/XOXO+Hair+%7C+Makeup+%7C+Skin+%28Salon+for+Women%29/data=!4m7!3m6!1s0x3bc2bf5153a60913:0x3f34e3d34bc02b4e!8m2!3d18.5327406!4d73.8288448!16s%2Fg%2F11jy3gth9v!19sChIJEwmmU1G_wjsRTivAS9PjND8?authuser=0&hl=en&rclk=1,XOXO Hair | Makeup | Skin (Salon for Women),4.7,Beauty Parlour,18.5327406,73.8288448
122,https://www.google.com/maps/place/Glow+%26+Beauty+Parlour/data=!4m7!3m6!1s0x3bc2bffd8c251d15:0xd23e6aaad6ba6d9b!8m2!3d18.533288!4d73.8213695!16s%2Fg%2F11s9jw3v6y!19sChIJFR0ljP2_wjsRm2261qpqPtI?authuser=0&hl=en&rclk=1,Glow & Beauty Parlour,4.9,Beauty Parlour,18.533288,73.8213695
123,"https://www.google.com/maps/place/Boho+Beauty+-+Nails,Beauty+%26+Hair+Salon/data=!4m7!3m6!1s0x3bc2bffde1d211c9:0x83a1e18302e3efb0!8m2!3d18.5312836!4d73.8288841!16s%2Fg%2F11kqczmk4l!19sChIJyRHS4f2_wjsRsO_jAoPhoYM?authuser=0&hl=en&rclk=1","Boho Beauty - Nails,Beauty & Hair Salon",4.4,Beauty Parlour,18.5312836,73.8288841
124,https://www.google.com/maps/place/Sias+Beauty+Care/data=!4m7!3m6!1s0x3bc2bffa4f7ae411:0xe56bf53f09df48b!8m2!3d18.5251456!4d73.8273222!16s%2Fg%2F11j2flvvt1!19sChIJEeR6T_q_wjsRi_Sd8FO_Vg4?authuser=0&hl=en&rclk=1,Sias Beauty Care,4.8,Beauty Parlour,18.5251456,73.8273222
125,https://www.google.com/maps/place/Ragini%27s+derma+clinic+and+beauty+parlour/data=!4m7!3m6!1s0x3bc2bf785cf2d131:0xde744cf5ff065d6d!8m2!3d18.5295424!4d73.8325962!16s%2Fg%2F1pp2tjj9r!19sChIJMdHyXHi_wjsRbV0G__VMdN4?authuser=0&hl=en&rclk=1,Ragini's derma clinic and beauty parlour,4.8,Beauty Parlour,18.5295424,73.8325962
126,https://www.google.com/maps/place/Noopura+Beauty+Parlour/data=!4m7!3m6!1s0x3bc2bf785c904e4f:0x1151db65b2738925!8m2!3d18.5294051!4d73.8325239!16s%2Fg%2F1pp2tkvzc!19sChIJT06QXHi_wjsRJYlzsmXbURE?authuser=0&hl=en&rclk=1,Noopura Beauty Parlour,4,Beauty Parlour,18.5294051,73.8325239
127,https://www.google.com/maps/place/Creative+Art+Beauty+Parlour/data=!4m7!3m6!1s0x3bc2bf0f52cc186f:0x78cc19c3c36e3faa!8m2!3d18.5323438!4d73.8286312!16s%2Fg%2F11qy81sdnt!19sChIJbxjMUg-_wjsRqj9uw8MZzHg?authuser=0&hl=en&rclk=1,Creative Art Beauty Parlour,3.7,Beauty Parlour,18.5323438,73.8286312
128,https://www.google.com/maps/place/Beautious+Beauty+Parlour/data=!4m7!3m6!1s0x3bc2bf6f19cf4479:0x4c636ad8cc97081d!8m2!3d18.5331389!4d73.8254002!16s%2Fg%2F11fn51jxbh!19sChIJeUTPGW-_wjsRHQiXzNhqY0w?authuser=0&hl=en&rclk=1,Beautious Beauty Parlour,5,Beauty Parlour,18.5331389,73.8254002
129,https://www.google.com/maps/place/Supreme+Men%27s+Parlour/data=!4m7!3m6!1s0x3bc2bf9d222dc1a9:0x7479d1dd6a62733d!8m2!3d18.5249384!4d73.8288861!16s%2Fg%2F12q4r9y80!19sChIJqcEtIp2_wjsRPXNiat3ReXQ?authuser=0&hl=en&rclk=1,Supreme Men's Parlour,3.8,Beauty Parlour,18.5249384,73.8288861
130,https://www.google.com/maps/place/Petal%27s+Salon/data=!4m7!3m6!1s0x3bc2bfe494501bbf:0xa4c8aecb0a823814!8m2!3d18.5274669!4d73.826806!16s%2Fg%2F11sszcfr63!19sChIJvxtQlOS_wjsRFDiCCsuuyKQ?authuser=0&hl=en&rclk=1,Petal's Salon,5,Beauty Parlour,18.5274669,73.826806
131,https://www.google.com/maps/place/Leenas+Beauty+Parlour/data=!4m7!3m6!1s0x3bc2bf75d11e5cb9:0x190ebf911db09485!8m2!3d18.5294529!4d73.8245469!16s%2Fg%2F1pp2xb8lq!19sChIJuVwe0XW_wjsRhZSwHZG_Dhk?authuser=0&hl=en&rclk=1,Leenas Beauty Parlour,2,Beauty Parlour,18.5294529,73.8245469
132,https://www.google.com/maps/place/Khushi+Beauty+Parlour/data=!4m7!3m6!1s0x3bc2bf9da9b4c6bb:0x226836f503268eeb!8m2!3d18.5248941!4d73.8271237!16s%2Fg%2F12q4xlzvj!19sChIJu8a0qZ2_wjsR644mA_U2aCI?authuser=0&hl=en&rclk=1,Khushi Beauty Parlour,3,Beauty Parlour,18.5248941,73.8271237
133,https://www.google.com/maps/place/Pardesi+Hair+Cutting+Salon/data=!4m7!3m6!1s0x3bc2bf77c1a95c6f:0xfd06913c9757e972!8m2!3d18.528615!4d73.828508!16s%2Fg%2F1pp2tz23b!19sChIJb1ypwXe_wjsRculXlzyRBv0?authuser=0&hl=en&rclk=1,Pardesi Hair Cutting Salon,4.7,Beauty Parlour,18.528615,73.828508
134,https://www.google.com/maps/place/Hemali+Beauty+Parlour/data=!4m7!3m6!1s0x3bc2bf7425a2fe4f:0xf675cb7547eeb6c3!8m2!3d18.5306748!4d73.8237465!16s%2Fg%2F1pp2vfdwk!19sChIJT_6iJXS_wjsRw7buR3XLdfY?authuser=0&hl=en&rclk=1,Hemali Beauty Parlour,4.5,Beauty Parlour,18.5306748,73.8237465
135,https://www.google.com/maps/place/LIWA+Professional+Beauty+Salon/data=!4m7!3m6!1s0x3bc2bf1e29e16e91:0x1a9fd073c399e624!8m2!3d18.5304688!4d73.8299146!16s%2Fg%2F11fn9cmddw!19sChIJkW7hKR6_wjsRJOaZw3PQnxo?authuser=0&hl=en&rclk=1,LIWA Professional Beauty Salon,5,Beauty Parlour,18.5304688,73.8299146
136,https://www.google.com/maps/place/KrishnaKamal+Girls+PG+%26+Magic+Glow+Ladies+Parlour/data=!4m7!3m6!1s0x3bc2bf905626e23b:0x7feae784ade50158!8m2!3d18.5253165!4d73.8273636!16s%2Fg%2F11sgz057s7!19sChIJO-ImVpC_wjsRWAHlrYTn6n8?authuser=0&hl=en&rclk=1,KrishnaKamal Girls PG & Magic Glow Ladies Parlour,4.8,Beauty Parlour,18.5253165,73.8273636
137,https://www.google.com/maps/place/Classic+Beauty+Parlour+%26+Spa+Center/data=!4m7!3m6!1s0x3bc2bf762a5f4fe9:0x52a41fd6515ae6cf!8m2!3d18.526857!4d73.827115!16s%2Fg%2F11cm4cgk17!19sChIJ6U9fKna_wjsRz-ZaUdYfpFI?authuser=0&hl=en&rclk=1,Classic Beauty Parlour & Spa Center,3,Beauty Parlour,18.526857,73.827115
138,https://www.google.com/maps/place/Aaradhya+Beauty+parlor/data=!4m7!3m6!1s0x3bc2bfb12ab30783:0x1dd6ba6a0932acb1!8m2!3d18.5307085!4d73.8232335!16s%2Fg%2F11tp9xrn4j!19sChIJgwezKrG_wjsRsawyCWq61h0?authuser=0&hl=en&rclk=1,Aaradhya Beauty parlor,5,Beauty Parlour,18.5307085,73.8232335
139,https://www.google.com/maps/place/Beauty+Point/data=!4m7!3m6!1s0x3bc2bfa56356fc4d:0x2ce7d297bd970b0b!8m2!3d18.5144071!4d73.8176416!16s%2Fg%2F11t27pnnx6!19sChIJTfxWY6W_wjsRCwuXvZfS5yw?authuser=0&hl=en&rclk=1,Beauty Point,4.7,Beauty Parlour,18.5144071,73.8176416
140,https://www.google.com/maps/place/Mitali%27s+Beauty+Spa+And+Training+Institute/data=!4m7!3m6!1s0x3bc2bf9dc50a44e3:0x10443c1f9335bf67!8m2!3d18.5250326!4d73.8251733!16s%2Fg%2F11f5dgq_7s!19sChIJ40QKxZ2_wjsRZ781kx88RBA?authuser=0&hl=en&rclk=1,Mitali's Beauty Spa And Training Institute,2.5,Beauty Parlour,18.5250326,73.8251733
141,https://www.google.com/maps/place/Ashwarya+Beauty+Care/data=!4m7!3m6!1s0x3bc2bf79d8ceb203:0x11e5eb03ea4e3bb0!8m2!3d18.531467!4d73.83026!16s%2Fg%2F12q4qrybh!19sChIJA7LO2Hm_wjsRsDtO6gPr5RE?authuser=0&hl=en&rclk=1,Ashwarya Beauty Care,3.7,Beauty Parlour,18.531467,73.83026
142,https://www.google.com/maps/place/A+Threading+Freelancer/data=!4m7!3m6!1s0x3bc2bf4ce14315e7:0x2d3fed04bf0313a5!8m2!3d18.5254298!4d73.8270645!16s%2Fg%2F11vbpz5609!19sChIJ5xVD4Uy_wjsRpRMDvwTtPy0?authuser=0&hl=en&rclk=1,A Threading Freelancer,0,Beauty Parlour,18.5254298,73.8270645
143,https://www.google.com/maps/place/Priyanka+Beauty+Parlour/data=!4m7!3m6!1s0x3bc2bf9d8a51b0dd:0xe53d92fa8d4de013!8m2!3d18.5270471!4d73.8259419!16s%2Fg%2F11t9kc_35v!19sChIJ3bBRip2_wjsRE-BNjfqSPeU?authuser=0&hl=en&rclk=1,Priyanka Beauty Parlour,0,Beauty Parlour,18.5270471,73.8259419
144,https://www.google.com/maps/place/Deliya+Beauty+Parlour/data=!4m7!3m6!1s0x3bc2bf9d36800763:0x1f76a80558a6c6ce!8m2!3d18.5258702!4d73.8297669!16s%2Fg%2F11fnw17p6g!19sChIJYweANp2_wjsRzsamWAWodh8?authuser=0&hl=en&rclk=1,Deliya Beauty Parlour,5,Beauty Parlour,18.5258702,73.8297669
145,https://www.google.com/maps/place/Noorani+Beauty+Parlour/data=!4m7!3m6!1s0x3bc2bf75d128408f:0xc35983f048f5881b!8m2!3d18.5293218!4d73.8238552!16s%2Fg%2F1pp2xb8mq!19sChIJj0Ao0XW_wjsRG4j1SPCDWcM?authuser=0&hl=en&rclk=1,Noorani Beauty Parlour,5,Beauty Parlour,18.5293218,73.8238552
146,https://www.google.com/maps/place/Style+Inn+Beauty+Salon/data=!4m7!3m6!1s0x3bc2bf318f7f3797:0xb77cffdbd8ac9258!8m2!3d18.5225917!4d73.8287923!16s%2Fg%2F11pkcqh575!19sChIJlzd_jzG_wjsRWJKs2Nv_fLc?authuser=0&hl=en&rclk=1,Style Inn Beauty Salon,5,Beauty Parlour,18.5225917,73.8287923
147,https://www.google.com/maps/place/Sanskruta%27s+Beauty+Studio/data=!4m7!3m6!1s0x3bc2bf870b18af99:0xf68296d7ea98c1ac!8m2!3d18.5222357!4d73.8464634!16s%2Fg%2F11spqfgcfz!19sChIJma8YC4e_wjsRrMGY6teWgvY?authuser=0&hl=en&rclk=1,Sanskruta's Beauty Studio,4.5,Beauty Parlour,18.5222357,73.8464634
148,https://www.google.com/maps/place/Sheela%27s+Beauty+Clinique+and+Institute/data=!4m7!3m6!1s0x3bc2bf8612663713:0xb7b4b37cd92c561b!8m2!3d18.5180579!4d73.8417039!16s%2Fg%2F1q6jh54b_!19sChIJEzdmEoa_wjsRG1Ys2XyztLc?authuser=0&hl=en&rclk=1,Sheela's Beauty Clinique and Institute,4.1,Beauty Parlour,18.5180579,73.8417039
149,https://www.google.com/maps/place/Esvee+Academy+%26+Hair+Studio/data=!4m7!3m6!1s0x3bc2bf8d860620b7:0x2892877e7d89d04c!8m2!3d18.5106055!4d73.8204966!16s%2Fg%2F11gd1y7xjn!19sChIJtyAGho2_wjsRTNCJfX6Hkig?authuser=0&hl=en&rclk=1,Esvee Academy & Hair Studio,4.8,Beauty Parlour,18.5106055,73.8204966
150,https://www.google.com/maps/place/Elegance+-+Beauty+%26+Hair/data=!4m7!3m6!1s0x3bc2bf9c5476ad0b:0x267ecf01db5a7b54!8m2!3d18.5264354!4d73.8315574!16s%2Fg%2F11cmzm058v!19sChIJC612VJy_wjsRVHta2wHPfiY?authuser=0&hl=en&rclk=1,Elegance - Beauty & Hair,4.5,Beauty Parlour,18.5264354,73.8315574
151,https://www.google.com/maps/place/Urvashi+Beauty+Parlour/data=!4m7!3m6!1s0x3bc2c0789110c2cd:0xfb8614bdf98d270c!8m2!3d18.5206608!4d73.8430543!16s%2Fg%2F11b7jdgr_s!19sChIJzcIQkXjAwjsRDCeN-b0Uhvs?authuser=0&hl=en&rclk=1,Urvashi Beauty Parlour,4.1,Beauty Parlour,18.5206608,73.8430543
152,https://www.google.com/maps/place/Blush+Beauty+Parlour+%26+Salon/data=!4m7!3m6!1s0x3bc2bf7654d5c193:0x4e9a26f7cb3839d6!8m2!3d18.5299583!4d73.8272066!16s%2Fg%2F11jsb8c395!19sChIJk8HVVHa_wjsR1jk4y_cmmk4?authuser=0&hl=en&rclk=1,Blush Beauty Parlour & Salon,0,Beauty Parlour,18.5299583,73.8272066
153,https://www.google.com/maps/place/Patil+Wada/data=!4m7!3m6!1s0x3bc2bf2c5428c4c1:0xa791386466c79716!8m2!3d18.5248998!4d73.8271239!16s%2Fg%2F11s4y5v5jl!19sChIJwcQoVCy_wjsRFpfHZmQ4kac?authuser=0&hl=en&rclk=1,Patil Wada,0,Beauty Parlour,18.5248998,73.8271239
154,https://www.google.com/maps/place/Adhara+ladies+beauty+parlour/data=!4m7!3m6!1s0x3bc2bf9d1da936e1:0xcfb99ac22cbdd797!8m2!3d18.5247218!4d73.826986!16s%2Fg%2F11fkwgmrbp!19sChIJ4TapHZ2_wjsRl9e9LMKauc8?authuser=0&hl=en&rclk=1,Adhara ladies beauty parlour,3,Beauty Parlour,18.5247218,73.826986
155,https://www.google.com/maps/place/Jagruti+Beauty+Parlour/data=!4m7!3m6!1s0x3bc2bf76ff892933:0x4894e4db22766f70!8m2!3d18.5300944!4d73.8270629!16s%2Fg%2F1yf_9rjd8!19sChIJMymJ_3a_wjsRcG92ItvklEg?authuser=0&hl=en&rclk=1,Jagruti Beauty Parlour,5,Beauty Parlour,18.5300944,73.8270629
156,https://www.google.com/maps/place/Srushti+Beauty+Parlour/data=!4m7!3m6!1s0x3bc2bf219494d7c9:0xb3ca572c1110eb2c!8m2!3d18.5320111!4d73.8235656!16s%2Fg%2F11srgmd3yr!19sChIJydeUlCG_wjsRLOsQESxXyrM?authuser=0&hl=en&rclk=1,Srushti Beauty Parlour,0,Beauty Parlour,18.5320111,73.8235656
157,https://www.google.com/maps/place/Kajal%27S+Beauty+Parlour/data=!4m7!3m6!1s0x3bc2bf76683c5385:0xad8ac6971dd3a0e9!8m2!3d18.5291359!4d73.8256697!16s%2Fg%2F11sb6pspwn!19sChIJhVM8aHa_wjsR6aDTHZfGiq0?authuser=0&hl=en&rclk=1,Kajal'S Beauty Parlour,0,Beauty Parlour,18.5291359,73.8256697
158,https://www.google.com/maps/place/Sneha+Beauty+Parlour/data=!4m7!3m6!1s0x3bc2bf74259b7fc1:0xa3d5bbb04ba9ce7b!8m2!3d18.5306069!4d73.8237343!16s%2Fg%2F1pp2v9x4t!19sChIJwX-bJXS_wjsRe86pS7C71aM?authuser=0&hl=en&rclk=1,Sneha Beauty Parlour,4,Beauty Parlour,18.5306069,73.8237343
159,https://www.google.com/maps/place/Swamini%27s+Makeover+%26+Spa/data=!4m7!3m6!1s0x3bc2bf9c54a03c67:0x49b5570f189ca8ca!8m2!3d18.5242675!4d73.8268422!16s%2Fg%2F11k3x3hp5c!19sChIJZzygVJy_wjsRyqicGA9XtUk?authuser=0&hl=en&rclk=1,Swamini's Makeover & Spa,0,Beauty Parlour,18.5242675,73.8268422
160,https://www.google.com/maps/place/Springdale+Beauty+Parlour+And+Clinic/data=!4m7!3m6!1s0x3bc2c07ec54ee13f:0x13947bf660a87d47!8m2!3d18.5254505!4d73.8438918!16s%2Fg%2F11gbxd4tsv!19sChIJP-FOxX7AwjsRR32oYPZ7lBM?authuser=0&hl=en&rclk=1,Springdale Beauty Parlour And Clinic,4.5,Beauty Parlour,18.5254505,73.8438918
161,https://www.google.com/maps/place/Vidya%27s+Beauty+Parlour/data=!4m7!3m6!1s0x3bc2bfab6611e7b1:0x3e51cd6a1d58d495!8m2!3d18.532491!4d73.824991!16s%2Fg%2F11kk4nt_r_!19sChIJsecRZqu_wjsRldRYHWrNUT4?authuser=0&hl=en&rclk=1,Vidya's Beauty Parlour,0,Beauty Parlour,18.532491,73.824991
162,https://www.google.com/maps/place/Figural+Beauty+Parlour/data=!4m7!3m6!1s0x3bc2bf760e7a4d35:0xb5a2de8022a015d3!8m2!3d18.528109!4d73.824848!16s%2Fg%2F1pp2vbfwn!19sChIJNU16Dna_wjsR0xWgIoDeorU?authuser=0&hl=en&rclk=1,Figural Beauty Parlour,0,Beauty Parlour,18.528109,73.824848
163,https://www.google.com/maps/place/Linaz+Beauty+Parlour/data=!4m7!3m6!1s0x3bc2bf7455555555:0x297aea776278b08e!8m2!3d18.5296313!4d73.8213213!16s%2Fg%2F11k3x3sqbt!19sChIJVVVVVXS_wjsRjrB4Ynfqeik?authuser=0&hl=en&rclk=1,Linaz Beauty Parlour,0,Beauty Parlour,18.5296313,73.8213213
164,https://www.google.com/maps/place/Surekha+Beauty+Parlour/data=!4m7!3m6!1s0x3bc2c0802a607a87:0x219b40e7779e0d29!8m2!3d18.5313097!4d73.8420026!16s%2Fg%2F11c1ysgd3k!19sChIJh3pgKoDAwjsRKQ2ed-dAmyE?authuser=0&hl=en&rclk=1,Surekha Beauty Parlour,4.7,Beauty Parlour,18.5313097,73.8420026
165,https://www.google.com/maps/place/Lakme+Salon+FC+Road+-+For+Him+and+Her/data=!4m7!3m6!1s0x3bc2bf1ddc3de665:0xf602bf54091d9a01!8m2!3d18.5197462!4d73.8410083!16s%2Fg%2F11fpvbxfkf!19sChIJZeY93B2_wjsRAZodCVS_AvY?authuser=0&hl=en&rclk=1,Lakme Salon FC Road - For Him and Her,4.9,Beauty Parlour,18.5197462,73.8410083
166,https://www.google.com/maps/place/Mumtaz+Beauty+Parlour/data=!4m7!3m6!1s0x3bc2bf792048c3c1:0xf7eb9ac368497a4e!8m2!3d18.5309523!4d73.8347317!16s%2Fg%2F11cs7l46n1!19sChIJwcNIIHm_wjsRTnpJaMOa6_c?authuser=0&hl=en&rclk=1,Mumtaz Beauty Parlour,5,Beauty Parlour,18.5309523,73.8347317
167,https://www.google.com/maps/place/Vaishnavi+Beauty+Parlour/data=!4m7!3m6!1s0x3bc2bf7653250f27:0x79687e7455833dd2!8m2!3d18.529636!4d73.827149!16s%2Fg%2F12qg8sy5m!19sChIJJw8lU3a_wjsR0j2DVXR-aHk?authuser=0&hl=en&rclk=1,Vaishnavi Beauty Parlour,0,Beauty Parlour,18.529636,73.827149
168,https://www.google.com/maps/place/Rosaabellee+Beauty+studio/data=!4m7!3m6!1s0x3bc2c1749bebe5b9:0x6f90b2521d434531!8m2!3d18.5232594!4d73.8475134!16s%2Fg%2F11rht2p79v!19sChIJueXrm3TBwjsRMUVDHVKykG8?authuser=0&hl=en&rclk=1,Rosaabellee Beauty studio,4.8,Beauty Parlour,18.5232594,73.8475134
169,https://www.google.com/maps/place/A+One+Men%27s+Parlour/data=!4m7!3m6!1s0x3bc2bf77bede71c3:0x5df450ba0dda7cd7!8m2!3d18.529009!4d73.82839!16s%2Fg%2F1pp2tyyqn!19sChIJw3Hevne_wjsR13zaDbpQ9F0?authuser=0&hl=en&rclk=1,A One Men's Parlour,4.2,Beauty Parlour,18.529009,73.82839
170,"https://www.google.com/maps/place/Niks+International+Salon,+FC+Road+Branch/data=!4m7!3m6!1s0x3bc2bfe46df40359:0xf01d5bae0041e4ab!8m2!3d18.5221646!4d73.8412356!16s%2Fg%2F1td2xx_5!19sChIJWQP0beS_wjsRq-RBAK5bHfA?authuser=0&hl=en&rclk=1","Niks International Salon, FC Road Branch",4.5,Beauty Parlour,18.5221646,73.8412356
171,https://www.google.com/maps/place/Deliya+Beauty+Parlour/data=!4m7!3m6!1s0x3bc2bf9c30742665:0x1c489675fb971264!8m2!3d18.5234971!4d73.825111!16s%2Fg%2F11fnw1b8c8!19sChIJZSZ0MJy_wjsRZBKX-3WWSBw?authuser=0&hl=en&rclk=1,Deliya Beauty Parlour,0,Beauty Parlour,18.5234971,73.825111
172,https://www.google.com/maps/place/Srins+beauty+veda/data=!4m7!3m6!1s0x3bc2bf1162ec830d:0xe054ba888583219b!8m2!3d18.5244806!4d73.8409185!16s%2Fg%2F11t44z2n2g!19sChIJDYPsYhG_wjsRmyGDhYi6VOA?authuser=0&hl=en&rclk=1,Srins beauty veda,5,Beauty Parlour,18.5244806,73.8409185
173,https://www.google.com/maps/place/Kalon+beauty+-+Spa+and+Salon/data=!4m7!3m6!1s0x3bc2bf953e0d3019:0x5fc28a6e0c2a393d!8m2!3d18.5049666!4d73.8201846!16s%2Fg%2F11csswpkss!19sChIJGTANPpW_wjsRPTkqDG6Kwl8?authuser=0&hl=en&rclk=1,Kalon beauty - Spa and Salon,4.5,Beauty Parlour,18.5049666,73.8201846
174,https://www.google.com/maps/place/Lotus+Beauty+Parlour+For+Women/data=!4m7!3m6!1s0x3bc2bf6258c3b2d5:0xf3cc30665bc12fd5!8m2!3d18.5187821!4d73.8399572!16s%2Fg%2F11kpnxct9b!19sChIJ1bLDWGK_wjsR1S_BW2YwzPM?authuser=0&hl=en&rclk=1,Lotus Beauty Parlour For Women,5,Beauty Parlour,18.5187821,73.8399572
175,https://www.google.com/maps/place/Awesome+Hair+%26+Beauty+Salon+%28F.C.+Road%29/data=!4m7!3m6!1s0x3bc2bf879c77ad2d:0x43d49b13fef698f8!8m2!3d18.5195159!4d73.8410217!16s%2Fg%2F11bw82qvqh!19sChIJLa13nIe_wjsR-Jj2_hOb1EM?authuser=0&hl=en&rclk=1,Awesome Hair & Beauty Salon (F.C. Road),3.8,Beauty Parlour,18.5195159,73.8410217
176,https://www.google.com/maps/place/ANJALI+MENS+PARLOUR/data=!4m7!3m6!1s0x3bc2bf765286844d:0xedb73978fac9a59!8m2!3d18.5295222!4d73.8271516!16s%2Fg%2F1yf_9rj8c!19sChIJTYSGUna_wjsRWZqsj5dz2w4?authuser=0&hl=en&rclk=1,ANJALI MENS PARLOUR,4.5,Beauty Parlour,18.5295222,73.8271516
177,https://www.google.com/maps/place/Sonalee+Beauty+Parlour/data=!4m7!3m6!1s0x3bc2c1cdbf4961e9:0xa8e749e0aa68c8fd!8m2!3d18.5086713!4d73.8591575!16s%2Fg%2F11j8lz1d6n!19sChIJ6WFJv83BwjsR_choquBJ56g?authuser=0&hl=en&rclk=1,Sonalee Beauty Parlour,4.9,Beauty Parlour,18.5086713,73.8591575
178,https://www.google.com/maps/place/SAGAR%27s+Hair+Studio+%28Unisex+Salon%29/data=!4m7!3m6!1s0x3bc2bda8a8a9b59d:0xc8095e35c8da5d9b!8m2!3d18.5099197!4d73.8147533!16s%2Fg%2F11f53mw2cr!19sChIJnbWpqKi9wjsRm13ayDVeCcg?authuser=0&hl=en&rclk=1,SAGAR's Hair Studio (Unisex Salon),4.7,Beauty Parlour,18.5099197,73.8147533
179,https://www.google.com/maps/place/Sanskriti+Beauty+Parlour/data=!4m7!3m6!1s0x3bc2bf75e1357761:0x6ddc9530cacbe959!8m2!3d18.52815!4d73.823905!16s%2Fg%2F11c5gb9djr!19sChIJYXc14XW_wjsRWenLyjCV3G0?authuser=0&hl=en&rclk=1,Sanskriti Beauty Parlour,0,Beauty Parlour,18.52815,73.823905
180,https://www.google.com/maps/place/Srushti+Beauty+Parlour+%26+Treaning+Institute/data=!4m7!3m6!1s0x3bc2c0705d47def3:0x5bdacedcc9b1b0d3!8m2!3d18.5160507!4d73.851531!16s%2Fg%2F1pp2vf2lq!19sChIJ895HXXDAwjsR07CxydzO2ls?authuser=0&hl=en&rclk=1,Srushti Beauty Parlour & Treaning Institute,4.3,Beauty Parlour,18.5160507,73.851531
181,https://www.google.com/maps/place/Serene+salon+%26+academy/data=!4m7!3m6!1s0x3bc2c072e31e5c0d:0x628ab16c588653c!8m2!3d18.5083367!4d73.8509691!16s%2Fg%2F11f3tzmzy0!19sChIJDVwe43LAwjsRPGWIxRarKAY?authuser=0&hl=en&rclk=1,Serene salon & academy,4.7,Beauty Parlour,18.5083367,73.8509691
182,https://www.google.com/maps/place/Kirti+Beauty/data=!4m7!3m6!1s0x3bc2bfb0d4c833c1:0x3f3728a2f21d963!8m2!3d18.5079814!4d73.8039255!16s%2Fg%2F1jkxgyjbj!19sChIJwTPI1LC_wjsRY9khL4py8wM?authuser=0&hl=en&rclk=1,Kirti Beauty,4.3,Beauty Parlour,18.5079814,73.8039255
183,https://www.google.com/maps/place/Medi+Hair+creations/data=!4m7!3m6!1s0x3bc2bfbfcc2c1f07:0x21f484a3f0a9560d!8m2!3d18.5062296!4d73.8173237!16s%2Fg%2F1hm23m4gd!19sChIJBx8szL-_wjsRDVap8KOE9CE?authuser=0&hl=en&rclk=1,Medi Hair creations,4.3,Beauty Parlour,18.5062296,73.8173237
184,https://www.google.com/maps/place/Jyoti%E2%80%99s+salon/data=!4m7!3m6!1s0x3bc2c1b9f9a86091:0x23ab1d3cee802eb2!8m2!3d18.5156404!4d73.8459176!16s%2Fg%2F11vhkn5tx4!19sChIJkWCo-bnBwjsRsi6A7jwdqyM?authuser=0&hl=en&rclk=1,Jyoti’s salon,5,Beauty Parlour,18.5156404,73.8459176
185,https://www.google.com/maps/place/Swati%27s+Beauty+Academy/data=!4m7!3m6!1s0x3bc2c0427bb15129:0xbbf8f6f8529199b1!8m2!3d18.5162968!4d73.8631654!16s%2Fg%2F1pp2txnq6!19sChIJKVGxe0LAwjsRsZmRUvj2-Ls?authuser=0&hl=en&rclk=1,Swati's Beauty Academy,4.4,Beauty Parlour,18.5162968,73.8631654
186,https://www.google.com/maps/place/Miracle+Hair+Saloon/data=!4m7!3m6!1s0x3bc2bf9c54ef0757:0x860a45cf968df147!8m2!3d18.5242395!4d73.8268677!16s%2Fg%2F11tf4087tk!19sChIJVwfvVJy_wjsRR_GNls9FCoY?authuser=0&hl=en&rclk=1,Miracle Hair Saloon,5,Beauty Parlour,18.5242395,73.8268677
187,https://www.google.com/maps/place/Vaishali+Beauty+Centre/data=!4m7!3m6!1s0x3bc2bf8f3fffffff:0xf3b24128a14c08c5!8m2!3d18.5177317!4d73.8413042!16s%2Fg%2F1tnqffgv!19sChIJ____P4-_wjsRxQhMoShBsvM?authuser=0&hl=en&rclk=1,Vaishali Beauty Centre,3.8,Beauty Parlour,18.5177317,73.8413042
188,https://www.google.com/maps/place/Shachi+beauty+salon/data=!4m7!3m6!1s0x3bc2c1ba8ef29433:0xb5164fbff0bab0b5!8m2!3d18.5092603!4d73.8468237!16s%2Fg%2F11h56j548v!19sChIJM5TyjrrBwjsRtbC68L9PFrU?authuser=0&hl=en&rclk=1,Shachi beauty salon,4.3,Beauty Parlour,18.5092603,73.8468237
189,https://www.google.com/maps/place/Sajili+Beauty+Parlour/data=!4m7!3m6!1s0x3bc2c07398b5cc33:0x103b497ba198c14c!8m2!3d18.5095524!4d73.8490948!16s%2Fg%2F1tffh6py!19sChIJM8y1mHPAwjsRTMGYoXtJOxA?authuser=0&hl=en&rclk=1,Sajili Beauty Parlour,4.1,Beauty Parlour,18.5095524,73.8490948
190,https://www.google.com/maps/place/Habib%27s+Hair+and+Beauty+Salon/data=!4m7!3m6!1s0x3bc2c07909d910fd:0xfcce87cc1b0418eb!8m2!3d18.5190789!4d73.8447127!16s%2Fg%2F11h0xs8_x!19sChIJ_RDZCXnAwjsR6xgEG8yHzvw?authuser=0&hl=en&rclk=1,Habib's Hair and Beauty Salon,3.6,Beauty Parlour,18.5190789,73.8447127
191,https://www.google.com/maps/place/The+Magic+Beauty+Salon+%26+Makeup+Studio/data=!4m7!3m6!1s0x3bc2c074f47b2af7:0x954d1302343d93a2!8m2!3d18.5082704!4d73.8444311!16s%2Fg%2F11tx_zksxv!19sChIJ9yp79HTAwjsRopM9NAITTZU?authuser=0&hl=en&rclk=1,The Magic Beauty Salon & Makeup Studio,5,Beauty Parlour,18.5082704,73.8444311
192,https://www.google.com/maps/place/Gorgeous+Beauty+Zone/data=!4m7!3m6!1s0x3bc2bf8a9df62d11:0xbffce366deb80369!8m2!3d18.515729!4d73.8348683!16s%2Fg%2F11b77q2qpc!19sChIJES32nYq_wjsRaQO43mbj_L8?authuser=0&hl=en&rclk=1,Gorgeous Beauty Zone,5,Beauty Parlour,18.515729,73.8348683
193,https://www.google.com/maps/place/Neha+Beauty+Parlour/data=!4m7!3m6!1s0x3bc2c07ac86d8ccb:0xdcc1af821b41c967!8m2!3d18.5195126!4d73.853094!16s%2Fg%2F12vr6xlt8!19sChIJy4xtyHrAwjsRZ8lBG4Kvwdw?authuser=0&hl=en&rclk=1,Neha Beauty Parlour,3.6,Beauty Parlour,18.5195126,73.853094
194,https://www.google.com/maps/place/Beauty+Land+Ladies+parlor/data=!4m7!3m6!1s0x3bc2c1bf6ac199ad:0xacfd8273aaf8479d!8m2!3d18.5181081!4d73.8452234!16s%2Fg%2F11kbbtsfs1!19sChIJrZnBar_BwjsRnUf4qnOC_aw?authuser=0&hl=en&rclk=1,Beauty Land Ladies parlor,5,Beauty Parlour,18.5181081,73.8452234
195,https://www.google.com/maps/place/Glorious+Beauty+Salon/data=!4m7!3m6!1s0x3bc2c06de0133845:0x4d8ccb1eabf548e2!8m2!3d18.5120719!4d73.8550175!16s%2Fg%2F11cjnnlcc6!19sChIJRTgT4G3AwjsR4kj1qx7LjE0?authuser=0&hl=en&rclk=1,Glorious Beauty Salon,4.5,Beauty Parlour,18.5120719,73.8550175
196,https://www.google.com/maps/place/Hair+Crush+Studio/data=!4m7!3m6!1s0x3bc2c1af6f72f4a5:0x2d791eb480d449b5!8m2!3d18.5090449!4d73.8462986!16s%2Fg%2F11hgjj8ddk!19sChIJpfRyb6_BwjsRtUnUgLQeeS0?authuser=0&hl=en&rclk=1,Hair Crush Studio,4.9,Beauty Parlour,18.5090449,73.8462986
197,https://www.google.com/maps/place/Vebz+Studio/data=!4m7!3m6!1s0x3bc2c12ef8e8386f:0x74453942d92ee438!8m2!3d18.515309!4d73.8473719!16s%2Fg%2F11mw0l10rg!19sChIJbzjo-C7BwjsROOQu2UI5RXQ?authuser=0&hl=en&rclk=1,Vebz Studio,4.5,Beauty Parlour,18.515309,73.8473719
198,"https://www.google.com/maps/place/Mansi+Pure+Touch,+Beauty+and+Makeup+Studio/data=!4m7!3m6!1s0x3bc2bfd1896ca7a9:0x2ff5ab4bb9d3f35a!8m2!3d18.5656241!4d73.804281!16s%2Fg%2F11ptw3ntbp!19sChIJqadsidG_wjsRWvPTuUur9S8?authuser=0&hl=en&rclk=1","Mansi Pure Touch, Beauty and Makeup Studio",4.9,Beauty Parlour,18.5656241,73.804281
199,https://www.google.com/maps/place/Piyusha+Beauty+Parlor/data=!4m7!3m6!1s0x3bc2bf75dba080cf:0x7c3b766971281a0f!8m2!3d18.528862!4d73.823712!16s%2Fg%2F1pp2vhy0b!19sChIJz4Cg23W_wjsRDxoocWl2O3w?authuser=0&hl=en&rclk=1,Piyusha Beauty Parlor,0,Beauty Parlour,18.528862,73.823712
200,https://www.google.com/maps/place/Vama+Ladies+Beauty+Parlour+and+Training+Institute/data=!4m7!3m6!1s0x3bc2c0703efadbdf:0xf40461b703755bcb!8m2!3d18.5176675!4d73.8530346!16s%2Fg%2F11c1wvv23w!19sChIJ39v6PnDAwjsRy1t1A7dhBPQ?authuser=0&hl=en&rclk=1,Vama Ladies Beauty Parlour and Training Institute,4.2,Beauty Parlour,18.5176675,73.8530346
201,"https://www.google.com/maps/place/Pearl+Beauty,+Hair+%26+Makeup+Studio/data=!4m7!3m6!1s0x3bc2c1e36c87f987:0xc1bffc72461287f!8m2!3d18.5189624!4d73.8675298!16s%2Fg%2F11q3qh6gbq!19sChIJh_mHbOPBwjsRfyhhJMf_Gww?authuser=0&hl=en&rclk=1","Pearl Beauty, Hair & Makeup Studio",5,Beauty Parlour,18.5189624,73.8675298
202,https://www.google.com/maps/place/Santoshi%27s+Beauty+Hair+Spa+Salon/data=!4m7!3m6!1s0x3bc2c1a56bf9679d:0xe2bf410ed67095c!8m2!3d18.5109984!4d73.8516274!16s%2Fg%2F11mvmv6nm8!19sChIJnWf5a6XBwjsRXAln7RD0Kw4?authuser=0&hl=en&rclk=1,Santoshi's Beauty Hair Spa Salon,4.5,Beauty Parlour,18.5109984,73.8516274
203,https://www.google.com/maps/place/LIWA+Professional+Beauty+Salon/data=!4m7!3m6!1s0x3bc2bf2841d09a8f:0x55f17cd82e8eba9f!8m2!3d18.5249917!4d73.8270199!16s%2Fg%2F11fn9bmq4v!19sChIJj5rQQSi_wjsRn7qOLth88VU?authuser=0&hl=en&rclk=1,LIWA Professional Beauty Salon,1,Beauty Parlour,18.5249917,73.8270199
204,https://www.google.com/maps/place/Sunskruti%27s+Beauty+Parlour/data=!4m7!3m6!1s0x3bc2bf7672951907:0x425bb68eb45c51ab!8m2!3d18.5286043!4d73.824912!16s%2Fg%2F11c59xjc1t!19sChIJBxmVcna_wjsRq1FctI62W0I?authuser=0&hl=en&rclk=1,Sunskruti's Beauty Parlour,0,Beauty Parlour,18.5286043,73.824912
205,https://www.google.com/maps/place/Joyous+Ladies+Beauty+Parlour/data=!4m7!3m6!1s0x3bc2bf79c2c667a5:0xb9029e3fd8c3378e!8m2!3d18.5318861!4d73.8307167!16s%2Fg%2F1pp2vd7j0!19sChIJpWfGwnm_wjsRjjfD2D-eArk?authuser=0&hl=en&rclk=1,Joyous Ladies Beauty Parlour,3.8,Beauty Parlour,18.5318861,73.8307167
206,https://www.google.com/maps/place/Payal+Beauty+Parlour/data=!4m7!3m6!1s0x3bc2bf7676e63425:0x75b25ec0b3f9563!8m2!3d18.528971!4d73.824525!16s%2Fg%2F1pp2vjgbx!19sChIJJTTmdna_wjsRY5U_C-wlWwc?authuser=0&hl=en&rclk=1,Payal Beauty Parlour,0,Beauty Parlour,18.528971,73.824525
207,https://www.google.com/maps/place/Komal+Ladies+Beauty+Parlour/data=!4m7!3m6!1s0x3bc2bf761c34ea17:0x464b502eb21529bb!8m2!3d18.527284!4d73.825289!16s%2Fg%2F11cmbm52s9!19sChIJF-o0HHa_wjsRuykVsi5QS0Y?authuser=0&hl=en&rclk=1,Komal Ladies Beauty Parlour,0,Beauty Parlour,18.527284,73.825289
208,https://www.google.com/maps/place/Manisha/data=!4m7!3m6!1s0x3bc2bf7649ae729b:0xc55e501e0b25a573!8m2!3d18.5330564!4d73.8255205!16s%2Fg%2F11q836tkjr!19sChIJm3KuSXa_wjsRc6UlCx5QXsU?authuser=0&hl=en&rclk=1,Manisha,0,Beauty Parlour,18.5330564,73.8255205
209,https://www.google.com/maps/place/Aishwarya+Ladies+Beauty+Parlour/data=!4m7!3m6!1s0x3bc2bf743e01d8e5:0x3af9fdc2fb93c24f!8m2!3d18.5312281!4d73.8231089!16s%2Fg%2F11cmcxh07n!19sChIJ5dgBPnS_wjsRT8KT-8L9-To?authuser=0&hl=en&rclk=1,Aishwarya Ladies Beauty Parlour,0,Beauty Parlour,18.5312281,73.8231089
210,https://www.google.com/maps/place/New+Classic+Men%27s+Parlour/data=!4m7!3m6!1s0x3bc2bf7620ffc0a3:0x4523219ba872f999!8m2!3d18.5270477!4d73.8260029!16s%2Fg%2F11df4wfs6f!19sChIJo8D_IHa_wjsRmflyqJshI0U?authuser=0&hl=en&rclk=1,New Classic Men's Parlour,5,Beauty Parlour,18.5270477,73.8260029
211,https://www.google.com/maps/place/Ideal+Men%27s+Parlour/data=!4m7!3m6!1s0x3bc2bf764ae0c303:0x6d53f56ee7bc26f1!8m2!3d18.5288611!4d73.8271445!16s%2Fg%2F12q4s0g1w!19sChIJA8PgSna_wjsR8Sa85271U20?authuser=0&hl=en&rclk=1,Ideal Men's Parlour,3.2,Beauty Parlour,18.5288611,73.8271445
212,https://www.google.com/maps/place/Radha+Beauty+Parlour/data=!4m7!3m6!1s0x3bc2bf7138f329f3:0x9cf38eb01fc8efcb!8m2!3d18.5334358!4d73.8257344!16s%2Fg%2F11g81sfg9p!19sChIJ8ynzOHG_wjsRy-_IH7CO85w?authuser=0&hl=en&rclk=1,Radha Beauty Parlour,0,Beauty Parlour,18.5334358,73.8257344
213,https://www.google.com/maps/place/Anushka+Beauty+Studio/data=!4m7!3m6!1s0x3bc2bf7624ab6931:0x83740b71d836e486!8m2!3d18.5278834!4d73.8260973!16s%2Fg%2F11sc_7t8z5!19sChIJMWmrJHa_wjsRhuQ22HELdIM?authuser=0&hl=en&rclk=1,Anushka Beauty Studio,0,Beauty Parlour,18.5278834,73.8260973
214,https://www.google.com/maps/place/Akashda+Men%27s+Parlour/data=!4m7!3m6!1s0x3bc2bf767e5978fd:0x220dd2a2fef63bcc!8m2!3d18.52975!4d73.824504!16s%2Fg%2F1pp2tw1g8!19sChIJ_XhZfna_wjsRzDv2_qLSDSI?authuser=0&hl=en&rclk=1,Akashda Men's Parlour,4,Beauty Parlour,18.52975,73.824504
215,https://www.google.com/maps/place/Shraddha+Beauty+Parlour/data=!4m7!3m6!1s0x3bc2bf78e0fa1923:0xea05dcd205249259!8m2!3d18.5305762!4d73.8344818!16s%2Fg%2F1v_w0tvp!19sChIJIxn64Hi_wjsRWZIkBdLcBeo?authuser=0&hl=en&rclk=1,Shraddha Beauty Parlour,3.3,Beauty Parlour,18.5305762,73.8344818
216,https://www.google.com/maps/place/Pawan+Men%27s+Parlour/data=!4m7!3m6!1s0x3bc2bf77b6aa338d:0x7c6cf65df077d79c!8m2!3d18.5290641!4d73.8276099!16s%2Fg%2F12q4t5w4k!19sChIJjTOqtne_wjsRnNd38F32bHw?authuser=0&hl=en&rclk=1,Pawan Men's Parlour,1,Beauty Parlour,18.5290641,73.8276099
217,https://www.google.com/maps/place/Keemayah+Cosmetic+Trading+Beauty+Parlour/data=!4m7!3m6!1s0x3bc2bf8f3fffffff:0x9cf12437fc74e8b1!8m2!3d18.5134085!4d73.8367409!16s%2Fg%2F1tvm16fb!19sChIJ____P4-_wjsRseh0_Dck8Zw?authuser=0&hl=en&rclk=1,Keemayah Cosmetic Trading Beauty Parlour,3.7,Beauty Parlour,18.5134085,73.8367409
218,https://www.google.com/maps/place/Adarsha+Hair+Dresses/data=!4m7!3m6!1s0x3bc2bf766e967953:0x3ba0b6c004ebdab!8m2!3d18.528962!4d73.825263!16s%2Fg%2F1pp2vbhg1!19sChIJU3mWbna_wjsRq71OAGwLugM?authuser=0&hl=en&rclk=1,Adarsha Hair Dresses,4,Beauty Parlour,18.528962,73.825263
219,https://www.google.com/maps/place/Omkar+Mens+Parlor+and+Saloon/data=!4m7!3m6!1s0x3bc2bf76687853dd:0x3f55b00ac6f32c94!8m2!3d18.5292958!4d73.8255874!16s%2Fg%2F1pp2tyd6_!19sChIJ3VN4aHa_wjsRlCzzxgqwVT8?authuser=0&hl=en&rclk=1,Omkar Mens Parlor and Saloon,3,Beauty Parlour,18.5292958,73.8255874
220,https://www.google.com/maps/place/Queen%E2%80%99s+Beauty+Pride/data=!4m7!3m6!1s0x3bc2c19570a57e0d:0xf438aaa0751d38ed!8m2!3d18.520784!4d73.8608357!16s%2Fg%2F11v9vf12dl!19sChIJDX6lcJXBwjsR7TgddaCqOPQ?authuser=0&hl=en&rclk=1,Queen’s Beauty Pride,0,Beauty Parlour,18.520784,73.8608357
221,https://www.google.com/maps/place/Swarupa%27s+Beauty+Parlour/data=!4m7!3m6!1s0x3bc2c16b01a2a509:0xb8bd75b8cd5319a0!8m2!3d18.5205921!4d73.8578785!16s%2Fg%2F11swbt4rsn!19sChIJCaWiAWvBwjsRoBlTzbh1vbg?authuser=0&hl=en&rclk=1,Swarupa's Beauty Parlour,5,Beauty Parlour,18.5205921,73.8578785
222,https://www.google.com/maps/place/Swamini+Beauty+parlour+and+service+at+Home/data=!4m7!3m6!1s0x3bc2c15ca1ca8ac5:0xa1f6441ac262f137!8m2!3d18.5239981!4d73.8646404!16s%2Fg%2F11l30921tl!19sChIJxYrKoVzBwjsRN_FiwhpE9qE?authuser=0&hl=en&rclk=1,Swamini Beauty parlour and service at Home,4,Beauty Parlour,18.5239981,73.8646404
223,https://www.google.com/maps/place/Kinjal+Beauty+Parlor./data=!4m7!3m6!1s0x3bc2c18de5951c1d:0x9a528c20c92882b2!8m2!3d18.5214145!4d73.8583088!16s%2Fg%2F11ddx6pp7c!19sChIJHRyV5Y3BwjsRsoIoySCMUpo?authuser=0&hl=en&rclk=1,Kinjal Beauty Parlor.,4.3,Beauty Parlour,18.5214145,73.8583088
224,https://www.google.com/maps/place/Durga+Beauty+Parlour/data=!4m7!3m6!1s0x3bc2c1aab455a28f:0x9998e65c74ac4294!8m2!3d18.5201352!4d73.8617157!16s%2Fg%2F11mv4m3hhn!19sChIJj6JVtKrBwjsRlEKsdFzmmJk?authuser=0&hl=en&rclk=1,Durga Beauty Parlour,4.6,Beauty Parlour,18.5201352,73.8617157
225,https://www.google.com/maps/place/Aishwarya+Beauty+Parlour/data=!4m7!3m6!1s0x3bc2c18a5ee27835:0x9446b26cc0afa085!8m2!3d18.5204642!4d73.8582084!16s%2Fg%2F11sgcxbpt6!19sChIJNXjiXorBwjsRhaCvwGyyRpQ?authuser=0&hl=en&rclk=1,Aishwarya Beauty Parlour,0,Beauty Parlour,18.5204642,73.8582084
226,https://www.google.com/maps/place/Nupur+Beauty+Parlour+%26+Spa/data=!4m7!3m6!1s0x3bc2c06740ad19f7:0x565f34752b79f96d!8m2!3d18.5236288!4d73.8639965!16s%2Fg%2F1pp2w_spg!19sChIJ9xmtQGfAwjsRbfl5K3U0X1Y?authuser=0&hl=en&rclk=1,Nupur Beauty Parlour & Spa,4,Beauty Parlour,18.5236288,73.8639965
227,https://www.google.com/maps/place/Saundarya+beauty+Salon+%26+Spa/data=!4m7!3m6!1s0x3bc2c06a6b76dbd9:0x25e77e1be036cdd6!8m2!3d18.520736!4d73.8608399!16s%2Fg%2F11clsfs5zv!19sChIJ2dt2a2rAwjsR1s024Bt-5yU?authuser=0&hl=en&rclk=1,Saundarya beauty Salon & Spa,4.7,Beauty Parlour,18.520736,73.8608399
228,https://www.google.com/maps/place/Susmita+Beauty+Parlour/data=!4m7!3m6!1s0x3bc2c067796cea15:0x116f64f8e6180652!8m2!3d18.5222281!4d73.864925!16s%2Fg%2F11t55_q7fh!19sChIJFepseWfAwjsRUgYY5vhkbxE?authuser=0&hl=en&rclk=1,Susmita Beauty Parlour,0,Beauty Parlour,18.5222281,73.864925
229,https://www.google.com/maps/place/Namarta+Ladies+Beauty+Parlour/data=!4m7!3m6!1s0x3bc2c0659a1f3c4f:0x22219e6c9fc9e081!8m2!3d18.5194341!4d73.8571748!16s%2Fg%2F11tf4062vc!19sChIJTzwfmmXAwjsRgeDJn2yeISI?authuser=0&hl=en&rclk=1,Namarta Ladies Beauty Parlour,0,Beauty Parlour,18.5194341,73.8571748
230,https://www.google.com/maps/place/Shine+Beauty+Parlour/data=!4m7!3m6!1s0x3bc2c065dd3b0927:0xd8992614f41c87d9!8m2!3d18.5201117!4d73.8588705!16s%2Fg%2F11cn8sdtzc!19sChIJJwk73WXAwjsR2Ycc9BQmmdg?authuser=0&hl=en&rclk=1,Shine Beauty Parlour,3.5,Beauty Parlour,18.5201117,73.8588705
231,https://www.google.com/maps/place/Blossoms+Beauty+Salon+%26+Spa/data=!4m7!3m6!1s0x3bc2c159a797a5a7:0x78a268b4d3781ac5!8m2!3d18.5207274!4d73.8570703!16s%2Fg%2F11f7323p8h!19sChIJp6WXp1nBwjsRxRp407Roong?authuser=0&hl=en&rclk=1,Blossoms Beauty Salon & Spa,5,Beauty Parlour,18.5207274,73.8570703
232,https://www.google.com/maps/place/Barber+Mens+parlour/data=!4m7!3m6!1s0x3bc2c0662e650f47:0xe9d7acc35b080d00!8m2!3d18.5194975!4d73.86207!16s%2Fg%2F1pp2tybdl!19sChIJRw9lLmbAwjsRAA0IW8Os1-k?authuser=0&hl=en&rclk=1,Barber Mens parlour,3.2,Beauty Parlour,18.5194975,73.86207
233,https://www.google.com/maps/place/Arya+beauty+women+parler/data=!4m7!3m6!1s0x3bc2c17e8acf40a3:0x2ca66ec33817e239!8m2!3d18.5235128!4d73.8592872!16s%2Fg%2F11flzrg_b5!19sChIJo0DPin7BwjsROeIXOMNupiw?authuser=0&hl=en&rclk=1,Arya beauty women parler,0,Beauty Parlour,18.5235128,73.8592872
234,"https://www.google.com/maps/place/NAMRATA+Studio,+Salon+and+Academy/data=!4m7!3m6!1s0x3bc2c010a800cfd7:0x2fb86d0364ef2db1!8m2!3d18.5229483!4d73.8623055!16s%2Fg%2F11dyzl0kq9!19sChIJ188AqBDAwjsRsS3vZANtuC8?authuser=0&hl=en&rclk=1","NAMRATA Studio, Salon and Academy",4.5,Beauty Parlour,18.5229483,73.8623055
235,https://www.google.com/maps/place/impala+hair+salon/data=!4m7!3m6!1s0x3bc2c0660056a435:0x53fd4dd43c1ad1f4!8m2!3d18.5187889!4d73.8594745!16s%2Fg%2F124yc0pw7!19sChIJNaRWAGbAwjsR9NEaPNRN_VM?authuser=0&hl=en&rclk=1,impala hair salon,3.1,Beauty Parlour,18.5187889,73.8594745
236,https://www.google.com/maps/place/Supriya+Beauty+Parlour/data=!4m7!3m6!1s0x3bc2c0671862f089:0xf0dc2f2dd56b5a14!8m2!3d18.523139!4d73.863049!16s%2Fg%2F12xpqx5y4!19sChIJifBiGGfAwjsRFFpr1S0v3PA?authuser=0&hl=en&rclk=1,Supriya Beauty Parlour,0,Beauty Parlour,18.523139,73.863049
237,https://www.google.com/maps/place/Life+Style+Beauty+Parlour+%26+Makeup+Studio/data=!4m7!3m6!1s0x3bc2c067a0e59333:0x1b3407d44e984afb!8m2!3d18.5217218!4d73.8636742!16s%2Fg%2F11s51v7z69!19sChIJM5PloGfAwjsR-0qYTtQHNBs?authuser=0&hl=en&rclk=1,Life Style Beauty Parlour & Makeup Studio,5,Beauty Parlour,18.5217218,73.8636742
238,https://www.google.com/maps/place/Manasvi+Beauty+Parlour/data=!4m7!3m6!1s0x3bc2c19233d7db8d:0xb63b10e88eb4d64b!8m2!3d18.5233937!4d73.8641338!16s%2Fg%2F11j4lmd7l4!19sChIJjdvXM5LBwjsRS9a0jugQO7Y?authuser=0&hl=en&rclk=1,Manasvi Beauty Parlour,4.5,Beauty Parlour,18.5233937,73.8641338
239,https://www.google.com/maps/place/Rajasthan+Beauty+Parlour+%26+Institute/data=!4m7!3m6!1s0x3bc2c06bddb5d47b:0x51dbe3faeb08642c!8m2!3d18.515818!4d73.854802!16s%2Fg%2F1td3dgzj!19sChIJe9S13WvAwjsRLGQI6_rj21E?authuser=0&hl=en&rclk=1,Rajasthan Beauty Parlour & Institute,4.8,Beauty Parlour,18.515818,73.854802
240,https://www.google.com/maps/place/ELYSIAN+HAIR+STUDIO/data=!4m7!3m6!1s0x3bc2c138171c82a7:0x25a4085232aed050!8m2!3d18.516032!4d73.8481275!16s%2Fg%2F11h5vv78t8!19sChIJp4IcFzjBwjsRUNCuMlIIpCU?authuser=0&hl=en&rclk=1,ELYSIAN HAIR STUDIO,4.9,Beauty Parlour,18.516032,73.8481275
241,https://www.google.com/maps/place/Lime+Light+Beauty+Institute+%26+Ladies+Salon/data=!4m7!3m6!1s0x3bc2c168e98b725f:0x12c1188dcf9c161!8m2!3d18.518235!4d73.8543728!16s%2Fg%2F11j2p4hd8f!19sChIJX3KL6WjBwjsRYcH53IgRLAE?authuser=0&hl=en&rclk=1,Lime Light Beauty Institute & Ladies Salon,4.8,Beauty Parlour,18.518235,73.8543728
242,https://www.google.com/maps/place/4Mulletion+Unisex+Salon/data=!4m7!3m6!1s0x3bc2bff5588e78c9:0xaea9d016ef913ef4!8m2!3d18.5050245!4d73.8401041!16s%2Fg%2F11b6g8ttbc!19sChIJyXiOWPW_wjsR9D6R7xbQqa4?authuser=0&hl=en&rclk=1,4Mulletion Unisex Salon,4.8,Beauty Parlour,18.5050245,73.8401041
243,https://www.google.com/maps/place/Beauty+Therapy+And+Cosmetology/data=!4m7!3m6!1s0x3bc2c012c8fc0dbf:0xd4bf619f4c11239f!8m2!3d18.5102142!4d73.8524098!16s%2Fg%2F11f3y78sp1!19sChIJvw38yBLAwjsRnyMRTJ9hv9Q?authuser=0&hl=en&rclk=1,Beauty Therapy And Cosmetology,5,Beauty Parlour,18.5102142,73.8524098
244,https://www.google.com/maps/place/PRACHI+BEAUTY+PARLOUR+%28PUNE%29/data=!4m7!3m6!1s0x3bc2c1b7c49a3069:0x7be113b7bff64a16!8m2!3d18.514081!4d73.848538!16s%2Fg%2F11f62zvszf!19sChIJaTCaxLfBwjsRFkr2v7cT4Xs?authuser=0&hl=en&rclk=1,PRACHI BEAUTY PARLOUR (PUNE),3.5,Beauty Parlour,18.514081,73.848538
245,https://www.google.com/maps/place/L.Y.Hair+And+Beauty+Salon/data=!4m7!3m6!1s0x3bc2c1fdbb415ce3:0x98f621fb1938a2dd!8m2!3d18.5077081!4d73.8762301!16s%2Fg%2F11shn3f6nd!19sChIJ41xBu_3BwjsR3aI4Gfsh9pg?authuser=0&hl=en&rclk=1,L.Y.Hair And Beauty Salon,4.8,Beauty Parlour,18.5077081,73.8762301
246,https://www.google.com/maps/place/K+SALONS+PROFESSIONALS/data=!4m7!3m6!1s0x3bc2c076c943ce2b:0x12b786b66b9fce6f!8m2!3d18.5134305!4d73.8473933!16s%2Fg%2F1pzs735p7!19sChIJK85DyXbAwjsRb86fa7aGtxI?authuser=0&hl=en&rclk=1,K SALONS PROFESSIONALS,4.8,Beauty Parlour,18.5134305,73.8473933
247,https://www.google.com/maps/place/Institute+Of+Beauty+Health+%26+Ayurveda/data=!4m7!3m6!1s0x3bc2c071e981f215:0x211a54546a4a2115!8m2!3d18.5135451!4d73.8525431!16s%2Fg%2F1tnhwsrc!19sChIJFfKB6XHAwjsRFSFKalRUGiE?authuser=0&hl=en&rclk=1,Institute Of Beauty Health & Ayurveda,5,Beauty Parlour,18.5135451,73.8525431
248,https://www.google.com/maps/place/Beauty+Tree/data=!4m7!3m6!1s0x3bc2c070fac17361:0xb3229ea230253e92!8m2!3d18.5151579!4d73.8483857!16s%2Fg%2F11j03xw_l2!19sChIJYXPB-nDAwjsRkj4lMKKeIrM?authuser=0&hl=en&rclk=1,Beauty Tree,0,Beauty Parlour,18.5151579,73.8483857
249,https://www.google.com/maps/place/Priya+Spa+%26+Beauty+Care+%26+home+service+only+ladies/data=!4m7!3m6!1s0x3bc2c124b36adf4b:0xfa5773dc359568f4!8m2!3d18.5478209!4d73.8247119!16s%2Fg%2F11lq7_4b47!19sChIJS99qsyTBwjsR9GiVNdxzV_o?authuser=0&hl=en&rclk=1,Priya Spa & Beauty Care & home service only ladies,4.9,Beauty Parlour,18.5478209,73.8247119
250,https://www.google.com/maps/place/ARYA+BEAUTY+PARLOUR/data=!4m7!3m6!1s0x3bc2c074088c1493:0x595b440deae3795a!8m2!3d18.5100722!4d73.8482489!16s%2Fg%2F11bx8p2b6v!19sChIJkxSMCHTAwjsRWnnj6g1EW1k?authuser=0&hl=en&rclk=1,ARYA BEAUTY PARLOUR,3.2,Beauty Parlour,18.5100722,73.8482489
251,https://www.google.com/maps/place/Palm+2+Sole+Beauty+Academy/data=!4m7!3m6!1s0x3bc2c06e01af973b:0x3312da772b1a8c7b!8m2!3d18.5133615!4d73.8537773!16s%2Fg%2F11gdgtdfl_!19sChIJO5evAW7AwjsRe4waK3faEjM?authuser=0&hl=en&rclk=1,Palm 2 Sole Beauty Academy,4.4,Beauty Parlour,18.5133615,73.8537773
252,https://www.google.com/maps/place/Saishree+Beauty+Salon+%26+Academy/data=!4m7!3m6!1s0x3bc2c10796308109:0x3b8886d2a82c8321!8m2!3d18.510731!4d73.8634348!16s%2Fg%2F11jz5khk58!19sChIJCYEwlgfBwjsRIYMsqNKGiDs?authuser=0&hl=en&rclk=1,Saishree Beauty Salon & Academy,4.7,Beauty Parlour,18.510731,73.8634348
253,https://www.google.com/maps/place/Lotus+Beauty+Salon+and+Makeup+Studio+%28only+for+Ladies%29/data=!4m7!3m6!1s0x3bc2956b36790db5:0xd1ee0dbc2f186ac1!8m2!3d18.4648032!4d73.8343532!16s%2Fg%2F11qzx8dvgn!19sChIJtQ15NmuVwjsRwWoYL7wN7tE?authuser=0&hl=en&rclk=1,Lotus Beauty Salon and Makeup Studio (only for Ladies),4.9,Beauty Parlour,18.4648032,73.8343532
254,"https://www.google.com/maps/place/Sizhle+Beauty+Parlour,+Only+for+ladies./data=!4m7!3m6!1s0x3bc2c1ce067bab6d:0x95452133f7adcbe8!8m2!3d18.5080693!4d73.902752!16s%2Fg%2F1trc3dmm!19sChIJbat7Bs7BwjsR6Mut9zMhRZU?authuser=0&hl=en&rclk=1","Sizhle Beauty Parlour, Only for ladies.",4.8,Beauty Parlour,18.5080693,73.902752
255,https://www.google.com/maps/place/Shobha%27s+Beauty+Salon+%26+Academy/data=!4m7!3m6!1s0x3bc2c1850bcf7a71:0xd999a4e50a060819!8m2!3d18.5086611!4d73.8590734!16s%2Fg%2F11rv9zfz4d!19sChIJcXrPC4XBwjsRGQgGCuWkmdk?authuser=0&hl=en&rclk=1,Shobha's Beauty Salon & Academy,4.6,Beauty Parlour,18.5086611,73.8590734
256,https://www.google.com/maps/place/Midas+Touch+Hair+%26+Beauty+Institute+Hair+Course+Skin+Course+Make+up+Course/data=!4m7!3m6!1s0x3bc2c06ce5555555:0x5b69677d60b40145!8m2!3d18.5091186!4d73.8572502!16s%2Fg%2F1tmxc__8!19sChIJVVVV5WzAwjsRRQG0YH1naVs?authuser=0&hl=en&rclk=1,Midas Touch Hair & Beauty Institute Hair Course Skin Course Make up Course,4.6,Beauty Parlour,18.5091186,73.8572502
257,https://www.google.com/maps/place/Ladies+Beauty+Salon/data=!4m7!3m6!1s0x3bc2c17b77c31075:0xaff10b2e21e5639f!8m2!3d18.5088223!4d73.8732641!16s%2Fg%2F11f62g179y!19sChIJdRDDd3vBwjsRn2PlIS4L8a8?authuser=0&hl=en&rclk=1,Ladies Beauty Salon,4.9,Beauty Parlour,18.5088223,73.8732641
258,https://www.google.com/maps/place/PHOENIX+UNISEX+SALON+AND+SPA/data=!4m7!3m6!1s0x3bc2c136afc0a0b1:0x4802fee4614d4f2a!8m2!3d18.5168751!4d73.8522417!16s%2Fg%2F11s4w64jft!19sChIJsaDArzbBwjsRKk9NYeT-Akg?authuser=0&hl=en&rclk=1,PHOENIX UNISEX SALON AND SPA,4.6,Beauty Parlour,18.5168751,73.8522417
259,https://www.google.com/maps/place/Sonia%27s+Beauty+Care/data=!4m7!3m6!1s0x3bc2c01e389bff89:0x94f22cc1f8ffd8d6!8m2!3d18.4854727!4d73.8616392!16s%2Fg%2F11cly6ncty!19sChIJif-bOB7AwjsR1tj_-MEs8pQ?authuser=0&hl=en&rclk=1,Sonia's Beauty Care,4.9,Beauty Parlour,18.4854727,73.8616392
260,https://www.google.com/maps/place/Grace+Beauty+Parlour/data=!4m7!3m6!1s0x3bc2c07015555555:0x19b1f34ed503ce6e!8m2!3d18.5165358!4d73.852244!16s%2Fg%2F1tfgmvvx!19sChIJVVVVFXDAwjsRbs4D1U7zsRk?authuser=0&hl=en&rclk=1,Grace Beauty Parlour,0,Beauty Parlour,18.5165358,73.852244
261,https://www.google.com/maps/place/Shivangi+Beauty+Spa+%26+Salon+%28+Only+for+her+%29/data=!4m7!3m6!1s0x3bc2c05d6d258ac1:0x40d1f8ce1b719fba!8m2!3d18.5212073!4d73.8666201!16s%2Fg%2F1tggm2nl!19sChIJwYolbV3AwjsRup9xG8740UA?authuser=0&hl=en&rclk=1,Shivangi Beauty Spa & Salon ( Only for her ),3.8,Beauty Parlour,18.5212073,73.8666201
262,https://www.google.com/maps/place/National+Hair+Dressing+%26+Saloon/data=!4m7!3m6!1s0x3bc2c070f9bc386b:0xac6037da01b59c66!8m2!3d18.515498!4d73.850467!16s%2Fg%2F1pp2twqvr!19sChIJazi8-XDAwjsRZpy1Ado3YKw?authuser=0&hl=en&rclk=1,National Hair Dressing & Saloon,5,Beauty Parlour,18.515498,73.850467
263,https://www.google.com/maps/place/Lee%27s+Beauty+Centre+%26+Spa/data=!4m7!3m6!1s0x3bc2bf8d94414f8f:0xfdd540a7b48f1979!8m2!3d18.5102173!4d73.8338218!16s%2Fg%2F1tdckdvr!19sChIJj09BlI2_wjsReRmPtKdA1f0?authuser=0&hl=en&rclk=1,Lee's Beauty Centre & Spa,4.1,Beauty Parlour,18.5102173,73.8338218
264,https://www.google.com/maps/place/Calyx+beauty+parlour/data=!4m7!3m6!1s0x3bc2c1a78292f375:0xbda1996215c10184!8m2!3d18.5085663!4d73.8456839!16s%2Fg%2F11k3tlcmmv!19sChIJdfOSgqfBwjsRhAHBFWKZob0?authuser=0&hl=en&rclk=1,Calyx beauty parlour,3.7,Beauty Parlour,18.5085663,73.8456839
265,https://www.google.com/maps/place/Top+style+beauty+parlour/data=!4m7!3m6!1s0x3bc2c07a5aaaaaab:0x66ab46c30d4cd907!8m2!3d18.5186109!4d73.8517455!16s%2Fg%2F1th80d51!19sChIJq6qqWnrAwjsRB9lMDcNGq2Y?authuser=0&hl=en&rclk=1,Top style beauty parlour,5,Beauty Parlour,18.5186109,73.8517455
266,"https://www.google.com/maps/place/Shine+Beauty+Salon,+Spa+%26+Slimming+Center/data=!4m7!3m6!1s0x3bc2c070e887ce47:0xee05533b1df24d2f!8m2!3d18.515569!4d73.849451!16s%2Fg%2F1pp2tz0xx!19sChIJR86H6HDAwjsRL03yHTtTBe4?authuser=0&hl=en&rclk=1","Shine Beauty Salon, Spa & Slimming Center",3,Beauty Parlour,18.515569,73.849451
267,https://www.google.com/maps/place/Look+Like+The+Family+Salon/data=!4m7!3m6!1s0x3bc2c06e0e9c9e9f:0xc51e3fbaefb8cd4f!8m2!3d18.5120236!4d73.8549763!16s%2Fg%2F11c44cgxlp!19sChIJn56cDm7AwjsRT82477o_HsU?authuser=0&hl=en&rclk=1,Look Like The Family Salon,4.6,Beauty Parlour,18.5120236,73.8549763
268,https://www.google.com/maps/place/First+Lady+Beauty+Parlour/data=!4m7!3m6!1s0x3bc2c133855fef1b:0xe9a00dab16b1cfff!8m2!3d18.4890082!4d73.8538213!16s%2Fg%2F11vlxb5_f3!19sChIJG-9fhTPBwjsR_8-xFqsNoOk?authuser=0&hl=en&rclk=1,First Lady Beauty Parlour,5,Beauty Parlour,18.4890082,73.8538213
269,https://www.google.com/maps/place/Royal+Studio+Unisex+Salon/data=!4m7!3m6!1s0x3bc2c1f1481ecc7f:0xad8c1f288645037d!8m2!3d18.5128092!4d73.8437764!16s%2Fg%2F11tn48m0r0!19sChIJf8weSPHBwjsRfQNFhigfjK0?authuser=0&hl=en&rclk=1,Royal Studio Unisex Salon,5,Beauty Parlour,18.5128092,73.8437764
270,https://www.google.com/maps/place/Tuku%27s+ZAARRAA+Professional+Beauty+Unisex+Salon+in+Camp+Pune/data=!4m7!3m6!1s0x3bc2c153f10e858f:0x45140f71d01a2bfe!8m2!3d18.5250757!4d73.8775881!16s%2Fg%2F11lh4x648c!19sChIJj4UO8VPBwjsR_isa0HEPFEU?authuser=0&hl=en&rclk=1,Tuku's ZAARRAA Professional Beauty Unisex Salon in Camp Pune,4.9,Beauty Parlour,18.5250757,73.8775881
271,https://www.google.com/maps/place/Sakura+Beauty+Parlour/data=!4m7!3m6!1s0x3bc2eb74d60f6831:0xb5d7ef1c3fd0e416!8m2!3d18.4810198!4d73.8540832!16s%2Fg%2F11h7pcn234!19sChIJMWgP1nTrwjsRFuTQPxzv17U?authuser=0&hl=en&rclk=1,Sakura Beauty Parlour,4.8,Beauty Parlour,18.4810198,73.8540832
272,https://www.google.com/maps/place/Kalyani+beauty+parlour/data=!4m7!3m6!1s0x3bc2bfe0f5548c19:0x2709ab863b873a26!8m2!3d18.4848651!4d73.8172227!16s%2Fg%2F11rrvp0gky!19sChIJGYxU9eC_wjsRJjqHO4arCSc?authuser=0&hl=en&rclk=1,Kalyani beauty parlour,4.9,Beauty Parlour,18.4848651,73.8172227
273,https://www.google.com/maps/place/Milan+Men%27s+Parlour/data=!4m7!3m6!1s0x3bc2c06fecd90ef1:0x89cf5e0f61a540f8!8m2!3d18.517263!4d73.855079!16s%2Fg%2F11cp1d3w8m!19sChIJ8Q7Z7G_AwjsR-EClYQ9ez4k?authuser=0&hl=en&rclk=1,Milan Men's Parlour,3.5,Beauty Parlour,18.517263,73.855079
274,https://www.google.com/maps/place/EL+ROI+BEAUTY+SALON%26+PARLOUR/data=!4m7!3m6!1s0x3bc2c12290765773:0xa4353f0f197870f9!8m2!3d18.5146986!4d73.8674911!16s%2Fg%2F11sz9m6_bv!19sChIJc1d2kCLBwjsR-XB4GQ8_NaQ?authuser=0&hl=en&rclk=1,EL ROI BEAUTY SALON& PARLOUR,5,Beauty Parlour,18.5146986,73.8674911
275,https://www.google.com/maps/place/1993+A+Salon+Company+%5BPrabhat+Road%5D+%5BFrom+the+House+of+Salon+Apple%5D/data=!4m7!3m6!1s0x3bc2bfe1535de9a1:0x7e1eee05261b830e!8m2!3d18.5140865!4d73.836061!16s%2Fg%2F11p655klkj!19sChIJoeldU-G_wjsRDoMbJgXuHn4?authuser=0&hl=en&rclk=1,1993 A Salon Company [Prabhat Road] [From the House of Salon Apple],4.8,Beauty Parlour,18.5140865,73.836061
276,https://www.google.com/maps/place/MONA+LADIES+BEAUTY+PARLOUR/data=!4m7!3m6!1s0x3bc2c042e0703a27:0xcab6aec0f3d1b720!8m2!3d18.5178901!4d73.8658626!16s%2Fg%2F11cs3vx442!19sChIJJzpw4ELAwjsRILfR88Cutso?authuser=0&hl=en&rclk=1,MONA LADIES BEAUTY PARLOUR,5,Beauty Parlour,18.5178901,73.8658626
277,https://www.google.com/maps/place/JustGlow+Salon+-+Time+To+Redefine+Yourself/data=!4m7!3m6!1s0x3bc2c16ab2d7ee5f:0xbe80d0af8f16abf6!8m2!3d18.53106!4d73.8750441!16s%2Fg%2F11fmrfppjh!19sChIJX-7XsmrBwjsR9qsWj6_QgL4?authuser=0&hl=en&rclk=1,JustGlow Salon - Time To Redefine Yourself,4.6,Beauty Parlour,18.53106,73.8750441
278,https://www.google.com/maps/place/Pinkys+Herbal+Beauty+Clinic/data=!4m7!3m6!1s0x3bc2c0e6e5555555:0x1bb36f9b177d47b8!8m2!3d18.5416438!4d73.8380238!16s%2Fg%2F1ts_5146!19sChIJVVVV5ebAwjsRuEd9F5tvsxs?authuser=0&hl=en&rclk=1,Pinkys Herbal Beauty Clinic,4.2,Beauty Parlour,18.5416438,73.8380238
279,https://www.google.com/maps/place/Ashdas+beauty+parlour/data=!4m7!3m6!1s0x3bc2bff09544c9bf:0xaef0218bb1c387ae!8m2!3d18.494561!4d73.8345233!16s%2Fg%2F1tcxspqr!19sChIJv8lElfC_wjsRrofDsYsh8K4?authuser=0&hl=en&rclk=1,Ashdas beauty parlour,4.7,Beauty Parlour,18.494561,73.8345233
280,https://www.google.com/maps/place/Prerana+Beauty+Parlour/data=!4m7!3m6!1s0x3bc2c14e6947b2cf:0x40db07ae019aac6a!8m2!3d18.4858242!4d73.853504!16s%2Fg%2F11nyls1y02!19sChIJz7JHaU7BwjsRaqyaAa4H20A?authuser=0&hl=en&rclk=1,Prerana Beauty Parlour,4.7,Beauty Parlour,18.4858242,73.853504
281,https://www.google.com/maps/place/TOTALLY+TWISTED/data=!4m7!3m6!1s0x3bc2bf7eff2785af:0x68883641cc054e2f!8m2!3d18.5313713!4d73.8389108!16s%2Fg%2F1hm44gz6d!19sChIJr4Un_36_wjsRL04FzEE2iGg?authuser=0&hl=en&rclk=1,TOTALLY TWISTED,4.8,Beauty Parlour,18.5313713,73.8389108
282,https://www.google.com/maps/place/Volume+by+Anjali/data=!4m7!3m6!1s0x3bc2c17388a23923:0x214587e2ef222539!8m2!3d18.4968013!4d73.8597555!16s%2Fg%2F11hd9npp9y!19sChIJIzmiiHPBwjsROSUi7-KHRSE?authuser=0&hl=en&rclk=1,Volume by Anjali,4.5,Beauty Parlour,18.4968013,73.8597555
283,"https://www.google.com/maps/place/Wisteria+Salon+%28For+him+and+her%29+Skin,+Hair,+Nail,+Lash+Studio/data=!4m7!3m6!1s0x3bc2bf766e68ac4b:0x1eb447c881421bf3!8m2!3d18.5112249!4d73.8337785!16s%2Fg%2F11rjv8r6sv!19sChIJS6xobna_wjsR8xtCgchHtB4?authuser=0&hl=en&rclk=1","Wisteria Salon (For him and her) Skin, Hair, Nail, Lash Studio",4.9,Beauty Parlour,18.5112249,73.8337785
284,https://www.google.com/maps/place/VSM+24+SALON/data=!4m7!3m6!1s0x3bc2ebca5dffd207:0xf82d2374f7d072c9!8m2!3d18.4612502!4d73.8653836!16s%2Fg%2F11szcw_0z1!19sChIJB9L_XcrrwjsRyXLQ93QjLfg?authuser=0&hl=en&rclk=1,VSM 24 SALON,5,Beauty Parlour,18.4612502,73.8653836
285,https://www.google.com/maps/place/Beauty+Zone+ladies+Beauty+parlour/data=!4m7!3m6!1s0x3bc2c198152b6999:0x6158f0bdf7eae32d!8m2!3d18.4929553!4d73.8212753!16s%2Fg%2F11k5sl0rrg!19sChIJmWkrFZjBwjsRLePq973wWGE?authuser=0&hl=en&rclk=1,Beauty Zone ladies Beauty parlour,4.7,Beauty Parlour,18.4929553,73.8212753
286,https://www.google.com/maps/place/Lap+of+Luxury+Salon+%26+Spa/data=!4m7!3m6!1s0x3bc2c15c1de5b0f3:0xd24c84e9174dc3fb!8m2!3d18.4959033!4d73.8621514!16s%2Fg%2F11hyl7t6v1!19sChIJ87DlHVzBwjsR-8NNF-mETNI?authuser=0&hl=en&rclk=1,Lap of Luxury Salon & Spa,4.7,Beauty Parlour,18.4959033,73.8621514
287,https://www.google.com/maps/place/Krunals+Academy/data=!4m7!3m6!1s0x3bc2c145dfe8b2d7:0x54a8038846dbd29d!8m2!3d18.5233576!4d73.8471453!16s%2Fg%2F11s_zlkbfy!19sChIJ17Lo30XBwjsRndLbRogDqFQ?authuser=0&hl=en&rclk=1,Krunals Academy,5,Beauty Parlour,18.5233576,73.8471453
288,https://www.google.com/maps/place/JSK+BEAUTY+CONCEPTS/data=!4m7!3m6!1s0x3bc2c07177f5122f:0x607c4e7338e2e399!8m2!3d18.5307039!4d73.8621457!16s%2Fg%2F11cfg16z5!19sChIJLxL1d3HAwjsRmePiOHNOfGA?authuser=0&hl=en&rclk=1,JSK BEAUTY CONCEPTS,4.8,Beauty Parlour,18.5307039,73.8621457
289,https://www.google.com/maps/place/Madonna+Ladies+Beauty+Parlour/data=!4m7!3m6!1s0x3bc2c03c741e78f7:0x809260491ae44be0!8m2!3d18.499589!4d73.8705002!16s%2Fg%2F1vc6bvbp!19sChIJ93gedDzAwjsR4EvkGklgkoA?authuser=0&hl=en&rclk=1,Madonna Ladies Beauty Parlour,3.5,Beauty Parlour,18.499589,73.8705002
290,https://www.google.com/maps/place/Rajani%27s+hair+%26+Beauty+%28+Ladies+Only+%29/data=!4m7!3m6!1s0x3bc2c058396c3a63:0x5e47438015db608d!8m2!3d18.529603!4d73.876015!16s%2Fg%2F11dxh_tpw7!19sChIJYzpsOVjAwjsRjWDbFYBDR14?authuser=0&hl=en&rclk=1,Rajani's hair & Beauty ( Ladies Only ),4,Beauty Parlour,18.529603,73.876015
291,https://www.google.com/maps/place/Romas+Salon+%5BSinhagad+Road%5D+%5BPune%5D/data=!4m7!3m6!1s0x3bc29558b44d4095:0xa0b9e56efccee4b9!8m2!3d18.4796463!4d73.8244083!16s%2Fg%2F11f_x1vj5m!19sChIJlUBNtFiVwjsRueTO_G7luaA?authuser=0&hl=en&rclk=1,Romas Salon [Sinhagad Road] [Pune],4.5,Beauty Parlour,18.4796463,73.8244083
292,https://www.google.com/maps/place/Silver+Lining+Unisex+salon/data=!4m7!3m6!1s0x3bc2c1918087ae4b:0x4ca8e1a7b5063c29!8m2!3d18.5094467!4d73.8788086!16s%2Fg%2F11t0m1b0xw!19sChIJS66HgJHBwjsRKTwGtafhqEw?authuser=0&hl=en&rclk=1,Silver Lining Unisex salon,4.5,Beauty Parlour,18.5094467,73.8788086
293,https://www.google.com/maps/place/Revive+Hair+%26+Beauty+Studio/data=!4m7!3m6!1s0x3bc2bfeb9a0b5e8f:0x9f341ec47b4dc6ac!8m2!3d18.5003387!4d73.8233877!16s%2Fg%2F11csrw3_vq!19sChIJj14Lmuu_wjsRrMZNe8QeNJ8?authuser=0&hl=en&rclk=1,Revive Hair & Beauty Studio,4.7,Beauty Parlour,18.5003387,73.8233877
294,"https://www.google.com/maps/place/Nitrogen+Unisex+Salon,+FC+Road+Pune/data=!4m7!3m6!1s0x3bc2c1226e433c57:0x72b33421bfed6a65!8m2!3d18.5262436!4d73.8420634!16s%2Fg%2F11gy7sxtb_!19sChIJVzxDbiLBwjsRZWrtvyE0s3I?authuser=0&hl=en&rclk=1","Nitrogen Unisex Salon, FC Road Pune",4.8,Beauty Parlour,18.5262436,73.8420634
295,https://www.google.com/maps/place/Chez+Somya/data=!4m7!3m6!1s0x3bc2c0f9b4e3b5e3:0xf2b7631a85b655fe!8m2!3d18.5347292!4d73.8772182!16s%2Fg%2F1tfzvytg!19sChIJ47XjtPnAwjsR_lW2hRpjt_I?authuser=0&hl=en&rclk=1,Chez Somya,4.2,Beauty Parlour,18.5347292,73.8772182
296,https://www.google.com/maps/place/Beauty+Temple+the+Family+Salon+and+Academy/data=!4m7!3m6!1s0x3bc2c0fef7f015ab:0xc9920aff86124a3d!8m2!3d18.536181!4d73.885883!16s%2Fg%2F11b6zsl8t6!19sChIJqxXw9_7AwjsRPUoShv8Kksk?authuser=0&hl=en&rclk=1,Beauty Temple the Family Salon and Academy,4.7,Beauty Parlour,18.536181,73.885883
297,https://www.google.com/maps/place/Salon+Apple+%5BUnisex%5D+Karve+Road/data=!4m7!3m6!1s0x3bc2bf8c33ee16a9:0x23619ca34cec4adb!8m2!3d18.5101151!4d73.8344678!16s%2Fg%2F11clwjf7h6!19sChIJqRbuM4y_wjsR20rsTKOcYSM?authuser=0&hl=en&rclk=1,Salon Apple [Unisex] Karve Road,4.4,Beauty Parlour,18.5101151,73.8344678
298,https://www.google.com/maps/place/Flying+Scissor/data=!4m7!3m6!1s0x3bc2c1420e4a601b:0x6ec5b159e7dd9307!8m2!3d18.5173606!4d73.8438045!16s%2Fg%2F11g0l6_0sg!19sChIJG2BKDkLBwjsRB5Pd51mxxW4?authuser=0&hl=en&rclk=1,Flying Scissor,4.7,Beauty Parlour,18.5173606,73.8438045
299,https://www.google.com/maps/place/Enrich+Salon/data=!4m7!3m6!1s0x3bc2c14fed496bf7:0x46ed5befdf95888c!8m2!3d18.4966915!4d73.8627849!16s%2Fg%2F11h3lfnh55!19sChIJ92tJ7U_BwjsRjIiV3-9b7UY?authuser=0&hl=en&rclk=1,Enrich Salon,4.6,Beauty Parlour,18.4966915,73.8627849
300,https://www.google.com/maps/place/Aetheria+Beauty/data=!4m7!3m6!1s0x3bc2c1d2417a223f:0x9a3b922f513b4dae!8m2!3d18.4915338!4d73.9003224!16s%2Fg%2F11vd3gkmx0!19sChIJPyJ6QdLBwjsRrk07US-SO5o?authuser=0&hl=en&rclk=1,Aetheria Beauty,4.9,Beauty Parlour,18.4915338,73.9003224
301,https://www.google.com/maps/place/Beena%60s+Beauty+Parlour/data=!4m7!3m6!1s0x3bc2c07015555555:0x5af5b13755b321d5!8m2!3d18.5165358!4d73.852244!16s%2Fg%2F1td40yr6!19sChIJVVVVFXDAwjsR1SGzVTex9Vo?authuser=0&hl=en&rclk=1,Beena`s Beauty Parlour,0,Beauty Parlour,18.5165358,73.852244
302,https://www.google.com/maps/place/Iconik+Salon+Spa/data=!4m7!3m6!1s0x3bc2c070e5d1abe9:0x7f3c3ac401f7ac22!8m2!3d18.5154103!4d73.8496601!16s%2Fg%2F11sf2gcltj!19sChIJ6avR5XDAwjsRIqz3AcQ6PH8?authuser=0&hl=en&rclk=1,Iconik Salon Spa,0,Beauty Parlour,18.5154103,73.8496601
303,https://www.google.com/maps/place/Leena+Beauty+Parlour/data=!4m7!3m6!1s0x3bc2c0712df495d9:0x3506b52f7a91a3fd!8m2!3d18.5139348!4d73.8480838!16s%2Fg%2F1tg6h_mp!19sChIJ2ZX0LXHAwjsR_aORei-1BjU?authuser=0&hl=en&rclk=1,Leena Beauty Parlour,0,Beauty Parlour,18.5139348,73.8480838
304,https://www.google.com/maps/place/Orrchi+Beauty+Parlour/data=!4m7!3m6!1s0x3bc2c0705f90f285:0x41efebbe82498d9b!8m2!3d18.516235!4d73.850788!16s%2Fg%2F1pp2txp9_!19sChIJhfKQX3DAwjsRm41Jgr7r70E?authuser=0&hl=en&rclk=1,Orrchi Beauty Parlour,0,Beauty Parlour,18.516235,73.850788
305,https://www.google.com/maps/place/Oneness+Beauty+Salon+%26+Mehandi+Artist/data=!4m7!3m6!1s0x3bc2c166e918c8fb:0xa61b81bda8437292!8m2!3d18.5154908!4d73.8501134!16s%2Fg%2F11h0bb8c2d!19sChIJ-8gY6WbBwjsRknJDqL2BG6Y?authuser=0&hl=en&rclk=1,Oneness Beauty Salon & Mehandi Artist,0,Beauty Parlour,18.5154908,73.8501134
306,https://www.google.com/maps/place/Priyam+Beauty+Parlour/data=!4m7!3m6!1s0x3bc2c07a8124a1fb:0x9db947c4b707cfbf!8m2!3d18.5176272!4d73.8506637!16s%2Fg%2F1pp2vc2mk!19sChIJ-6EkgXrAwjsRv88Ht8RHuZ0?authuser=0&hl=en&rclk=1,Priyam Beauty Parlour,4,Beauty Parlour,18.5176272,73.8506637
307,https://www.google.com/maps/place/Nakshatra+Ladies+Beauty+Parlour/data=!4m7!3m6!1s0x3bc2c07226dfe387:0x93220d3d0312ac2f!8m2!3d18.511943!4d73.85174!16s%2Fg%2F1yfprvdxj!19sChIJh-PfJnLAwjsRL6wSAz0NIpM?authuser=0&hl=en&rclk=1,Nakshatra Ladies Beauty Parlour,3.6,Beauty Parlour,18.511943,73.85174
308,https://www.google.com/maps/place/Smart+Girl+Beauty+Parlour/data=!4m7!3m6!1s0x3bc2c07aeb15af25:0x2c337aef927501d0!8m2!3d18.5195133!4d73.8519317!16s%2Fg%2F11k4zrqp1v!19sChIJJa8V63rAwjsR0AF1ku96Myw?authuser=0&hl=en&rclk=1,Smart Girl Beauty Parlour,0,Beauty Parlour,18.5195133,73.8519317
309,https://www.google.com/maps/place/TATVA+-+Ayurved+Inspired+Ladies+Salon/data=!4m7!3m6!1s0x3bc2bfbdcff2302d:0x1ff4e677f7ac5ac6!8m2!3d18.5102239!4d73.8133693!16s%2Fg%2F11g8tz3wm6!19sChIJLTDyz72_wjsRxlqs93fm9B8?authuser=0&hl=en&rclk=1,TATVA - Ayurved Inspired Ladies Salon,4.7,Beauty Parlour,18.5102239,73.8133693
310,https://www.google.com/maps/place/La+Bella+Beauty+Studio/data=!4m7!3m6!1s0x3bc2c06a4ea72867:0x69b5e4a75f329251!8m2!3d18.5112313!4d73.8628677!16s%2Fg%2F11tcwlhw4w!19sChIJZyinTmrAwjsRUZIyX6fktWk?authuser=0&hl=en&rclk=1,La Bella Beauty Studio,0,Beauty Parlour,18.5112313,73.8628677
311,https://www.google.com/maps/place/Suhasini+The+Beauty/data=!4m7!3m6!1s0x3bc2c069458c3c55:0x2ec2161b2f8f5961!8m2!3d18.513845!4d73.8603135!16s%2Fg%2F1pp2wzcw6!19sChIJVTyMRWnAwjsRYVmPLxsWwi4?authuser=0&hl=en&rclk=1,Suhasini The Beauty,0,Beauty Parlour,18.513845,73.8603135
312,https://www.google.com/maps/place/V+Beauty+Studio+%26+Makeup+Academy/data=!4m7!3m6!1s0x3bc2c139dbf3641d:0x7b7e8e8b7bce9d6c!8m2!3d18.5191207!4d73.8613968!16s%2Fg%2F11krdt8b51!19sChIJHWTz2znBwjsRbJ3Oe4uOfns?authuser=0&hl=en&rclk=1,V Beauty Studio & Makeup Academy,0,Beauty Parlour,18.5191207,73.8613968
313,https://www.google.com/maps/place/Rajrajeshvari+Beauti+Parlour+And+Cosmetics/data=!4m7!3m6!1s0x3bc2c06623e0d7d7:0x998cff31fd0d836f!8m2!3d18.5191011!4d73.8613062!16s%2Fg%2F1pp2x5vb9!19sChIJ19fgI2bAwjsRb4MN_TH_jJk?authuser=0&hl=en&rclk=1,Rajrajeshvari Beauti Parlour And Cosmetics,0,Beauty Parlour,18.5191011,73.8613062
314,https://www.google.com/maps/place/Mrunmai+Beauty+Parlour/data=!4m7!3m6!1s0x3bc2c068a73221bb:0x4da814f1fa53b31c!8m2!3d18.518533!4d73.8606296!16s%2Fg%2F1pp2w_4v3!19sChIJuyEyp2jAwjsRHLNT-vEUqE0?authuser=0&hl=en&rclk=1,Mrunmai Beauty Parlour,0,Beauty Parlour,18.518533,73.8606296
315,https://www.google.com/maps/place/Trenze+Beauty+Parlour/data=!4m7!3m6!1s0x3bc2c06a50e124b1:0x7319469ac16fa248!8m2!3d18.510719!4d73.8630581!16s%2Fg%2F11v62w9f39!19sChIJsSThUGrAwjsRSKJvwZpGGXM?authuser=0&hl=en&rclk=1,Trenze Beauty Parlour,0,Beauty Parlour,18.510719,73.8630581
316,https://www.google.com/maps/place/Darshita+Beauty+Parlour/data=!4m7!3m6!1s0x3bc2c1c3b894b4cb:0x89e4e8631ea5eb6c!8m2!3d18.5105367!4d73.8603068!16s%2Fg%2F11j93pv3jv!19sChIJy7SUuMPBwjsRbOulHmPo5Ik?authuser=0&hl=en&rclk=1,Darshita Beauty Parlour,0,Beauty Parlour,18.5105367,73.8603068
317,https://www.google.com/maps/place/Universe+Beauty+Salon+%26+Academy/data=!4m7!3m6!1s0x3bc2c15f04cdbd4d:0xa527c1b44f5f10a0!8m2!3d18.5084129!4d73.8748521!16s%2Fg%2F11tdw40h_v!19sChIJTb3NBF_BwjsRoBBfT7TBJ6U?authuser=0&hl=en&rclk=1,Universe Beauty Salon & Academy,5,Beauty Parlour,18.5084129,73.8748521
318,https://www.google.com/maps/place/Shivansh+Enterprises/data=!4m7!3m6!1s0x3bc2c06901575ed5:0x3d6fdd3aa126f91a!8m2!3d18.5155975!4d73.8621404!16s%2Fg%2F11shd0klg6!19sChIJ1V5XAWnAwjsRGvkmoTrdbz0?authuser=0&hl=en&rclk=1,Shivansh Enterprises,0,Beauty Parlour,18.5155975,73.8621404
319,https://www.google.com/maps/place/Diamond+Beauty+Salon/data=!4m7!3m6!1s0x3bc2c047e8799f49:0x8596287493bb8b54!8m2!3d18.5098125!4d73.8764375!16s%2Fg%2F11sf2gjy_8!19sChIJSZ956EfAwjsRVIu7k3QoloU?authuser=0&hl=en&rclk=1,Diamond Beauty Salon,0,Beauty Parlour,18.5098125,73.8764375
320,https://www.google.com/maps/place/Shree+Tulja+Bhavani+Bangles+Stores/data=!4m7!3m6!1s0x3bc2c06e71d8d8c7:0x63201720d6a7eec9!8m2!3d18.5131745!4d73.855625!16s%2Fg%2F11t41_s90p!19sChIJx9jYcW7AwjsRye6n1iAXIGM?authuser=0&hl=en&rclk=1,Shree Tulja Bhavani Bangles Stores,0,Beauty Parlour,18.5131745,73.855625
321,https://www.google.com/maps/place/Beauty+Hair+Dressers/data=!4m7!3m6!1s0x3bc2c047b3c6f771:0x9cadc47a5382f4a3!8m2!3d18.5109755!4d73.8751915!16s%2Fg%2F12lvgtpd2!19sChIJcffGs0fAwjsRo_SCU3rErZw?authuser=0&hl=en&rclk=1,Beauty Hair Dressers,0,Beauty Parlour,18.5109755,73.8751915
322,https://www.google.com/maps/place/Sunflower+Beauty+Parlour/data=!4m7!3m6!1s0x3bc2c17e200deaef:0xd7486bdc1447a62d!8m2!3d18.5115076!4d73.8770475!16s%2Fg%2F11stgc4kmb!19sChIJ7-oNIH7BwjsRLaZHFNxrSNc?authuser=0&hl=en&rclk=1,Sunflower Beauty Parlour,5,Beauty Parlour,18.5115076,73.8770475
323,https://www.google.com/maps/place/Shree+Gurudevdatta+Bangadi+Bhandaar/data=!4m7!3m6!1s0x3bc2c06e70541d25:0x6d7046aa24ecbd86!8m2!3d18.5129279!4d73.8562871!16s%2Fg%2F11t5n40qqp!19sChIJJR1UcG7AwjsRhr3sJKpGcG0?authuser=0&hl=en&rclk=1,Shree Gurudevdatta Bangadi Bhandaar,0,Beauty Parlour,18.5129279,73.8562871
324,https://www.google.com/maps/place/Himalaya+Wellness+Store/data=!4m7!3m6!1s0x3bc2bf88687e4e7b:0xd18c42e400f897c1!8m2!3d18.5159846!4d73.842533!16s%2Fg%2F11f_zjrzfr!19sChIJe05-aIi_wjsRwZf4AORCjNE?authuser=0&hl=en&rclk=1,Himalaya Wellness Store,4,Beauty Parlour,18.5159846,73.842533
325,https://www.google.com/maps/place/LOOKS/data=!4m7!3m6!1s0x3bc2c06e2e0eec1d:0x5ed21473c8deb518!8m2!3d18.5145208!4d73.8542456!16s%2Fg%2F1w4vhcjd!19sChIJHewOLm7AwjsRGLXeyHMU0l4?authuser=0&hl=en&rclk=1,LOOKS,3.9,Beauty Parlour,18.5145208,73.8542456
326,https://www.google.com/maps/place/Dipti+Beauty+Parlour/data=!4m7!3m6!1s0x3bc2c069e06c01e5:0x31ed0b4e215ee93e!8m2!3d18.5147272!4d73.865304!16s%2Fg%2F11tjds54dx!19sChIJ5QFs4GnAwjsRPuleIU4L7TE?authuser=0&hl=en&rclk=1,Dipti Beauty Parlour,0,Beauty Parlour,18.5147272,73.865304
327,https://www.google.com/maps/place/Dhanashree+Bangles+Stores/data=!4m7!3m6!1s0x3bc2c06e71b648ab:0x459d679f22e87cd2!8m2!3d18.5131286!4d73.8556565!16s%2Fg%2F11s3zclyww!19sChIJq0i2cW7AwjsR0nzoIp9nnUU?authuser=0&hl=en&rclk=1,Dhanashree Bangles Stores,0,Beauty Parlour,18.5131286,73.8556565
328,https://www.google.com/maps/place/Saptpadi+Exclusive/data=!4m7!3m6!1s0x3bc2c074ffffffff:0x215cd5ec20945f91!8m2!3d18.5085761!4d73.8448239!16s%2Fg%2F1t_kdzlh!19sChIJ_____3TAwjsRkV-UIOzVXCE?authuser=0&hl=en&rclk=1,Saptpadi Exclusive,0,Beauty Parlour,18.5085761,73.8448239
329,https://www.google.com/maps/place/Step+On+Professional/data=!4m7!3m6!1s0x3bc2c13a2a784e49:0x819b5a20df08dfae!8m2!3d18.5158898!4d73.8462903!16s%2Fg%2F11s8139z30!19sChIJSU54KjrBwjsRrt8I3yBam4E?authuser=0&hl=en&rclk=1,Step On Professional,0,Beauty Parlour,18.5158898,73.8462903
330,https://www.google.com/maps/place/Sarah+Health+and+Beauty+Store/data=!4m7!3m6!1s0x3bc2c14d2c64a719:0xfa4bcac98b2bb5ee!8m2!3d18.5344167!4d73.8737263!16s%2Fg%2F11p_0xwyt5!19sChIJGadkLE3BwjsR7rUri8nKS_o?authuser=0&hl=en&rclk=1,Sarah Health and Beauty Store,0,Beauty Parlour,18.5344167,73.8737263
331,https://www.google.com/maps/place/Beauty+Balance/data=!4m7!3m6!1s0x3bc2c1917ece7e7f:0x85bd6dca626363da!8m2!3d18.5348658!4d73.8763263!16s%2Fg%2F11tn0w4q99!19sChIJf37OfpHBwjsR2mNjYsptvYU?authuser=0&hl=en&rclk=1,Beauty Balance,0,Beauty Parlour,18.5348658,73.8763263
332,https://www.google.com/maps/place/Surabhi+Ladies+Beauty+Parlour/data=!4m7!3m6!1s0x3bc2c08d549fdaa3:0x1955db7de36027b9!8m2!3d18.5417335!4d73.8653261!16s%2Fg%2F1yfjbm0wq!19sChIJo9qfVI3AwjsRuSdg433bVRk?authuser=0&hl=en&rclk=1,Surabhi Ladies Beauty Parlour,0,Beauty Parlour,18.5417335,73.8653261
333,https://www.google.com/maps/place/SHAGUN+BEAUTY+PARLOUR/data=!4m7!3m6!1s0x3bc2c177a9ddcba1:0xf1ffcf4b714b4d67!8m2!3d18.5336796!4d73.8747984!16s%2Fg%2F11syyvmql7!19sChIJocvdqXfBwjsRZ01LcUvP__E?authuser=0&hl=en&rclk=1,SHAGUN BEAUTY PARLOUR,4.7,Beauty Parlour,18.5336796,73.8747984
334,https://www.google.com/maps/place/Himalaya+Wellness+Store/data=!4m7!3m6!1s0x3bc2c103eed8aa67:0x8c5b9bde34fa7e9c!8m2!3d18.5397001!4d73.8940141!16s%2Fg%2F11f_3yww_z!19sChIJZ6rY7gPBwjsRnH76NN6bW4w?authuser=0&hl=en&rclk=1,Himalaya Wellness Store,4.5,Beauty Parlour,18.5397001,73.8940141
335,https://www.google.com/maps/place/Alankar+Ladies+Beauty+Parlour/data=!4m7!3m6!1s0x3bc2c18001b9a483:0xcc02568cecc890e2!8m2!3d18.5309181!4d73.8752464!16s%2Fg%2F11gxmgp20q!19sChIJg6S5AYDBwjsR4pDI7IxWAsw?authuser=0&hl=en&rclk=1,Alankar Ladies Beauty Parlour,4.8,Beauty Parlour,18.5309181,73.8752464
336,https://www.google.com/maps/place/Suraj+Enterprises/data=!4m7!3m6!1s0x3bc2c0e591655ae3:0x76738b92ec9192e6!8m2!3d18.5471514!4d73.8781583!16s%2Fg%2F11t6s9v3x6!19sChIJ41plkeXAwjsR5pKR7JKLc3Y?authuser=0&hl=en&rclk=1,Suraj Enterprises,0,Beauty Parlour,18.5471514,73.8781583
337,https://www.google.com/maps/place/Durga+beauty+parlar/data=!4m7!3m6!1s0x3bc2c194ba58388d:0xb81a0384c5c201c6!8m2!3d18.5374925!4d73.8745735!16s%2Fg%2F11trbyrlsn!19sChIJjThYupTBwjsRxgHCxYQDGrg?authuser=0&hl=en&rclk=1,Durga beauty parlar,0,Beauty Parlour,18.5374925,73.8745735
338,https://www.google.com/maps/place/M%26G.+Beauyt+slon/data=!4m7!3m6!1s0x3bc2c11d9db57231:0x4d7543b6cfabbe84!8m2!3d18.5341004!4d73.8737925!16s%2Fg%2F11ght1994h!19sChIJMXK1nR3BwjsRhL6rz7ZDdU0?authuser=0&hl=en&rclk=1,M&G. Beauyt slon,5,Beauty Parlour,18.5341004,73.8737925
339,https://www.google.com/maps/place/Anitas+Hair+and+Beauty+Salon/data=!4m7!3m6!1s0x3bc2c1aaa53a685d:0xe5da72188f3fe6c0!8m2!3d18.5368633!4d73.8770788!16s%2Fg%2F11r0wng7qs!19sChIJXWg6parBwjsRwOY_jxhy2uU?authuser=0&hl=en&rclk=1,Anitas Hair and Beauty Salon,4,Beauty Parlour,18.5368633,73.8770788
340,https://www.google.com/maps/place/The+Ladies+Salon/data=!4m7!3m6!1s0x3bc2c1451f453bf7:0x1049ec6f074e9768!8m2!3d18.5340756!4d73.8788211!16s%2Fg%2F11scsgmjdg!19sChIJ9ztFH0XBwjsRaJdOB2_sSRA?authuser=0&hl=en&rclk=1,The Ladies Salon,4.8,Beauty Parlour,18.5340756,73.8788211
341,https://www.google.com/maps/place/1993+A+Salon+Company+%5BDhole+Patil+Road%5D+%5BFrom+the+House+of+Salon+Apple%5D/data=!4m7!3m6!1s0x3bc2c1088ad02747:0x3b47c3c5bb442724!8m2!3d18.5347234!4d73.8763914!16s%2Fg%2F11nwc8yym1!19sChIJRyfQigjBwjsRJCdEu8XDRzs?authuser=0&hl=en&rclk=1,1993 A Salon Company [Dhole Patil Road] [From the House of Salon Apple],4.7,Beauty Parlour,18.5347234,73.8763914
342,https://www.google.com/maps/place/%E0%A4%AA%E0%A5%8D%E0%A4%B0%E0%A4%BE%E0%A4%82%E0%A4%9C%E0%A4%B2+%E0%A4%95%E0%A4%B2%E0%A5%87%E0%A4%95%E0%A5%8D%E0%A4%B6%E0%A4%A8+%E0%A4%AC%E0%A5%8D%E0%A4%AF%E0%A5%82%E0%A4%9F%E0%A5%80+%E0%A4%AA%E0%A4%BE%E0%A4%B0%E0%A5%8D%E0%A4%B2%E0%A4%B0/data=!4m7!3m6!1s0x3bc2c0f6e7d3921b:0x2511f49e815b15b7!8m2!3d18.5354554!4d73.8735231!16s%2Fg%2F11tf1cq5__!19sChIJG5LT5_bAwjsRtxVbgZ70ESU?authuser=0&hl=en&rclk=1,प्रांजल कलेक्शन ब्यूटी पार्लर,0,Beauty Parlour,18.5354554,73.8735231
343,https://www.google.com/maps/place/Pearl+Beauty+Centre/data=!4m7!3m6!1s0x3bc2c147a473b05d:0x87bd910bfc85262c!8m2!3d18.5671208!4d73.9144194!16s%2Fg%2F1263pvj25!19sChIJXbBzpEfBwjsRLCaF_AuRvYc?authuser=0&hl=en&rclk=1,Pearl Beauty Centre,4.7,Beauty Parlour,18.5671208,73.9144194
