UID,URL,NAME,Latitude,Longitude
a1,https://www.google.com/maps/place/Abasaheb+Garware+College/data=!4m7!3m6!1s0x3bc2bf8e7c1c683b:0xf8528dc3a5c23412!8m2!3d18.5116964!4d73.8391238!16s%2Fm%2F0cr422y!19sChIJO2gcfI6_wjsREjTCpcONUvg?authuser=0&hl=en&rclk=1,Abasaheb Garware College,18.5116964,73.8391238
a2,https://www.google.com/maps/place/AISSMS+College+of+Engineering/data=!4m7!3m6!1s0x3bc2c0f555bf965d:0x4dbf1000c873a42d!8m2!3d18.5311701!4d73.8656595!16zL20vMDZ5Y2Yz!19sChIJXZa_VfXAwjsRLaRzyAAQv00?authuser=0&hl=en&rclk=1,AISSMS College of Engineering,18.5311701,73.8656595
a3,https://www.google.com/maps/place/AISSMS+College+of+Hotel+Management+and+Catering+Technology/data=!4m7!3m6!1s0x3bc2c062d0e72eeb:0x8d4934ed66db0100!8m2!3d18.527158!4d73.8541811!16s%2Fg%2F1tg9ll3c!19sChIJ6y7n0GLAwjsRAAHbZu00SY0?authuser=0&hl=en&rclk=1,AISSMS College of Hotel Management and Catering Technology,18.527158,73.8541811
a4,https://www.google.com/maps/place/AISSMS+Polytechnic/data=!4m7!3m6!1s0x3bc2c0f54e1aeb85:0xcea4124354957293!8m2!3d18.5314816!4d73.8663492!16s%2Fm%2F0t_crj9!19sChIJhesaTvXAwjsRk3KVVEMSpM4?authuser=0&hl=en&rclk=1,AISSMS Polytechnic,18.5314816,73.8663492
a5,https://www.google.com/maps/place/Ajeenkya+DY+Patil+University/data=!4m7!3m6!1s0x3bc2c71e08905091:0x51ca0d931361c1bc!8m2!3d18.6228667!4d73.9111481!16s%2Fg%2F11c488fp2b!19sChIJkVCQCB7HwjsRvMFhE5MNylE?authuser=0&hl=en&rclk=1,Ajeenkya DY Patil University,18.6228667,73.9111481
a6,https://www.google.com/maps/place/Anusaya+Sadba+Lonkar+Garden/data=!4m7!3m6!1s0x3bc2ea70bd7ffbaf:0x2efbea6ab0865293!8m2!3d18.480369!4d73.9017671!16s%2Fg%2F11c613d6y8!19sChIJr_t_vXDqwjsRk1KGsGrq-y4?authuser=0&hl=en&rclk=1,Anusaya Sadba Lonkar Garden,18.480369,73.9017671
a7,https://www.google.com/maps/place/Azam+Campus/data=!4m7!3m6!1s0x3bc2c040a0e98563:0x9dd3ef6ef8904dbd!8m2!3d18.5059184!4d73.8764073!16s%2Fg%2F1tdl4lcj!19sChIJY4XpoEDAwjsRvU2Q-G7v050?authuser=0&hl=en&rclk=1,Azam Campus,18.5059184,73.8764073
a8,https://www.google.com/maps/place/Bagul+Udyan/data=!4m7!3m6!1s0x3bc2c004f9e8e741:0xb3692b875147d7d8!8m2!3d18.4910317!4d73.850896!16s%2Fg%2F1th6c8tz!19sChIJQefo-QTAwjsR2NdHUYcrabM?authuser=0&hl=en&rclk=1,Bagul Udyan,18.4910317,73.850896
a9,https://www.google.com/maps/place/Bajirao+Garden/data=!4m7!3m6!1s0x3bc2bff9fca0f143:0x7b7bad3bdeb312fe!8m2!3d18.4927315!4d73.8368333!16s%2Fg%2F11bxf09d2t!19sChIJQ_Gg_Pm_wjsR_hKz3jute3s?authuser=0&hl=en&rclk=1,Bajirao Garden,18.4927315,73.8368333
a10,https://www.google.com/maps/place/Bharati+Vidyapeeth+Deemed+University/data=!4m7!3m6!1s0x3bc2eac7353cf903:0x98f9e9ff19dc42bb!8m2!3d18.5122484!4d73.8433307!16s%2Fm%2F0cr41v1!19sChIJA_k8NcfqwjsRu0LcGf_p-Zg?authuser=0&hl=en&rclk=1,Bharati Vidyapeeth Deemed University,18.5122484,73.8433307
a11,https://www.google.com/maps/place/Bharati+Vidyapeeth+Institute+Of+Management+and+Entrepreneurship+Development/data=!4m7!3m6!1s0x3bc2bf97977ba36f:0x17a8e19b76cb2043!8m2!3d18.5139366!4d73.8205561!16s%2Fg%2F11dfjbvgq4!19sChIJb6N7l5e_wjsRQyDLdpvhqBc?authuser=0&hl=en&rclk=1,Bharati Vidyapeeth Institute Of Management and Entrepreneurship Development,18.5139366,73.8205561
a12,https://www.google.com/maps/place/Byramjee+Jeejeebhoy+Government+Medical+College/data=!4m7!3m6!1s0x3bc2c05bed859c0b:0xb342b5f0d17dfa27!8m2!3d18.5257527!4d73.8704003!16zL20vMDR0YzNo!19sChIJC5yF7VvAwjsRJ_p90fC1QrM?authuser=0&hl=en&rclk=1,Byramjee Jeejeebhoy Government Medical College,18.5257527,73.8704003
a13,https://www.google.com/maps/place/Chhatrapati+Sambhaji+Maharaj+garden/data=!4m7!3m6!1s0x3bc2c1226f5ab457:0x87386eebb15efaaa!8m2!3d18.5204246!4d73.8464502!16s%2Fg%2F11j2xt00l6!19sChIJV7RabyLBwjsRqvpesetuOIc?authuser=0&hl=en&rclk=1,Chhatrapati Sambhaji Maharaj garden,18.5204246,73.8464502
a14,https://www.google.com/maps/place/Chhatrapati+Shivaji+Maharaj+Udhyan/data=!4m7!3m6!1s0x3bc2c00d64e84579:0x65ce227a023b117a!8m2!3d18.504429!4d73.8531714!16s%2Fg%2F1yfdpbpf5!19sChIJeUXoZA3AwjsRehE7AnoizmU?authuser=0&hl=en&rclk=1,Chhatrapati Shivaji Maharaj Udhyan,18.504429,73.8531714
a15,https://www.google.com/maps/place/Chittaranjan+Vatika/data=!4m7!3m6!1s0x3bc2bf7ef488c5eb:0x6bf52663120eaab4!8m2!3d18.5322985!4d73.8378708!16s%2Fg%2F1tj8__7x!19sChIJ68WI9H6_wjsRtKoOEmMm9Ws?authuser=0&hl=en&rclk=1,Chittaranjan Vatika,18.5322985,73.8378708
a16,https://www.google.com/maps/place/COEP+Technological+University/data=!4m7!3m6!1s0x3bc2c0883858b873:0x1d68fbf2cac75519!8m2!3d18.5293825!4d73.856541!16zL20vMDZkZnRr!19sChIJc7hYOIjAwjsRGVXHyvL7aB0?authuser=0&hl=en&rclk=1,COEP Technological University,18.5293825,73.856541
a17,https://www.google.com/maps/place/Collector+Office+Pune/data=!4m7!3m6!1s0x3bc2c188e4a021bb:0x28e04e5e794ac203!8m2!3d18.5234206!4d73.8710544!16s%2Fg%2F1vfp224g!19sChIJuyGg5IjBwjsRA8JKeV5O4Cg?authuser=0&hl=en&rclk=1,Collector Office Pune,18.5234206,73.8710544
a18,"https://www.google.com/maps/place/College+of+Agriculture,+Pune/data=!4m7!3m6!1s0x3bc2c081855692b3:0xb468438664cba14!8m2!3d18.5365646!4d73.8441307!16s%2Fg%2F1tc_zyhm!19sChIJs5JWhYHAwjsRFLpMZjiERgs?authuser=0&hl=en&rclk=1","College of Agriculture, Pune",18.5365646,73.8441307
a19,https://www.google.com/maps/place/Darshan+Museum/data=!4m7!3m6!1s0x3bc2c05a6c7a9121:0x402d0c33068f922a!8m2!3d18.5240953!4d73.8764697!16s%2Fm%2F0h7pm2v!19sChIJIZF6bFrAwjsRKpKPBjMMLUA?authuser=0&hl=en&rclk=1,Darshan Museum,18.5240953,73.8764697
a20,https://www.google.com/maps/place/Dr.+Shyamaprasad+Mukherjee+Garden/data=!4m7!3m6!1s0x3bc2bfedf3c3fec7:0xf73319dffcc3746!8m2!3d18.4998703!4d73.8297543!16s%2Fg%2F1tdnvbj_!19sChIJx_7D8-2_wjsRRjfM_50xcw8?authuser=0&hl=en&rclk=1,Dr. Shyamaprasad Mukherjee Garden,18.4998703,73.8297543
a21,https://www.google.com/maps/place/Empress+Botanical+Garden/data=!4m7!3m6!1s0x3bc2c1b595555555:0x20f6ac6285bc37fe!8m2!3d18.5123005!4d73.8979112!16s%2Fg%2F11j4bms0g3!19sChIJVVVVlbXBwjsR_je8hWKs9iA?authuser=0&hl=en&rclk=1,Empress Botanical Garden,18.5123005,73.8979112
a22,https://www.google.com/maps/place/Fergusson+College/data=!4m7!3m6!1s0x3bc2bf80982203c7:0xba2ba195e24b828a!8m2!3d18.5226858!4d73.8408175!16zL20vMDR5Nnhr!19sChIJxwMimIC_wjsRioJL4pWhK7o?authuser=0&hl=en&rclk=1,Fergusson College,18.5226858,73.8408175
a23,https://www.google.com/maps/place/Gool+Poonawalla+Garden/data=!4m7!3m6!1s0x3bc2c025564647bd:0x99e567a0e823fbe!8m2!3d18.496533!4d73.8770438!16s%2Fg%2F1tdpdn2q!19sChIJvUdGViXAwjsRvj-CDnpWngk?authuser=0&hl=en&rclk=1,Gool Poonawalla Garden,18.496533,73.8770438
a24,"https://www.google.com/maps/place/Government+Polytechnic,+Pune/data=!4m7!3m6!1s0x3bc2bf7ac9514abb:0x11d0cebbb7eb6392!8m2!3d18.5388179!4d73.8319532!16s%2Fm%2F0h3vr36!19sChIJu0pRyXq_wjsRkmPrt7vO0BE?authuser=0&hl=en&rclk=1","Government Polytechnic, Pune",18.5388179,73.8319532
a25,https://www.google.com/maps/place/Graamdevta+Shree+Tambdi+Jogeshwari+Mandir/data=!4m7!3m6!1s0x3bc2c06fc1853741:0x7a768c0b088d83be!8m2!3d18.5165556!4d73.8547939!16s%2Fg%2F1vppqzw3!19sChIJQTeFwW_AwjsRvoONCAuMdno?authuser=0&hl=en&rclk=1,Graamdevta Shree Tambdi Jogeshwari Mandir,18.5165556,73.8547939
a26,https://www.google.com/maps/place/Hutatma+Garden/data=!4m7!3m6!1s0x3bc2c0c2b135892d:0x33fbd731df1e3eb8!8m2!3d18.5556583!4d73.8765664!16s%2Fg%2F1vnngvxb!19sChIJLYk1scLAwjsRuD4e3zHX-zM?authuser=0&hl=en&rclk=1,Hutatma Garden,18.5556583,73.8765664
a27,https://www.google.com/maps/place/ILS+Law+College/data=!4m7!3m6!1s0x3bc2bf9ac57f49eb:0xc6624739e732732!8m2!3d18.5171271!4d73.8280512!16s%2Fm%2F026jtd3!19sChIJ60l_xZq_wjsRMidznnMkZgw?authuser=0&hl=en&rclk=1,ILS Law College,18.5171271,73.8280512
a28,https://www.google.com/maps/place/ISKCON+NVCC+Pune/data=!4m7!3m6!1s0x3bc2eafba92dd749:0x5eba1b5bbe09d7ee!8m2!3d18.4479075!4d73.8806802!16s%2Fm%2F0v3g7rc!19sChIJSdctqfvqwjsR7tcJvlsbul4?authuser=0&hl=en&rclk=1,ISKCON NVCC Pune,18.4479075,73.8806802
a29,https://www.google.com/maps/place/ISKCON+Pune+Camp/data=!4m7!3m6!1s0x3bc2c04fd9d3ddb9:0xe985e097c2bd1700!8m2!3d18.520418!4d73.8792549!16s%2Fg%2F1tgz3y63!19sChIJud3T2U_AwjsRABe9wpfghek?authuser=0&hl=en&rclk=1,ISKCON Pune Camp,18.520418,73.8792549
a30,https://www.google.com/maps/place/Jaisinghrao+Sasane+Garden+Wanawadi+Pune+Corporation+Garden/data=!4m7!3m6!1s0x3bc2c1c0b5797017:0xf13208b7b669cde2!8m2!3d18.5097437!4d73.9067523!16s%2Fg%2F11cmtzch9b!19sChIJF3B5tcDBwjsR4s1ptrcIMvE?authuser=0&hl=en&rclk=1,Jaisinghrao Sasane Garden Wanawadi Pune Corporation Garden,18.5097437,73.9067523
a31,https://www.google.com/maps/place/Jogger%27s+Park/data=!4m7!3m6!1s0x3bc2c110db1ce3d9:0xcec232b4e1ec9900!8m2!3d18.5496917!4d73.9024604!16s%2Fg%2F1tdckdxv!19sChIJ2eMc2xDBwjsRAJns4bQyws4?authuser=0&hl=en&rclk=1,Jogger's Park,18.5496917,73.9024604
a32,https://www.google.com/maps/place/Joshi%27s+Museum+Of+Miniature+Railways/data=!4m7!3m6!1s0x3bc2bfb1b40a7fad:0x9bc29a08fe558ee5!8m2!3d18.5015865!4d73.822345!16s%2Fm%2F0jwzhzj!19sChIJrX8KtLG_wjsR5Y5V_giawps?authuser=0&hl=en&rclk=1,Joshi's Museum Of Miniature Railways,18.5015865,73.822345
a33,https://www.google.com/maps/place/Kamala+Nehru+Park/data=!4m7!3m6!1s0x3bc2bf85f3df48f7:0xd28ad287ede973d5!8m2!3d18.5170408!4d73.8344134!16s%2Fm%2F0h662s_!19sChIJ90jf84W_wjsR1XPp7YfSitI?authuser=0&hl=en&rclk=1,Kamala Nehru Park,18.5170408,73.8344134
a34,https://www.google.com/maps/place/Kasba+Peth+Kshetriya+Karyalay+%26+Birth+and+Death+Certificate+Registrar+Office/data=!4m7!3m6!1s0x3bc2c0615a998a97:0xbee006a449f3064c!8m2!3d18.5251175!4d73.860166!16s%2Fg%2F1yfjv3llx!19sChIJl4qZWmHAwjsRTAbzSaQG4L4?authuser=0&hl=en&rclk=1,Kasba Peth Kshetriya Karyalay & Birth and Death Certificate Registrar Office,18.5251175,73.860166
a35,https://www.google.com/maps/place/Katraj+Lake/data=!4m7!3m6!1s0x3bc2eaddd13d544f:0x2a7c1fd121930e68!8m2!3d18.4444385!4d73.8629937!16s%2Fg%2F12qgcdsl1!19sChIJT1Q90d3qwjsRaA6TIdEffCo?authuser=0&hl=en&rclk=1,Katraj Lake,18.4444385,73.8629937
a36,https://www.google.com/maps/place/Laal+Mahal/data=!4m7!3m6!1s0x3bc2c065793c91a1:0x4a206d80daf21f92!8m2!3d18.5187433!4d73.8566483!16s%2Fm%2F05b_7gy!19sChIJoZE8eWXAwjsRkh_y2oBtIEo?authuser=0&hl=en&rclk=1,Laal Mahal,18.5187433,73.8566483
a37,https://www.google.com/maps/place/Late+Sanjay+Mahadeo+Nimhan+Gram+Sanskruti+Udyan/data=!4m7!3m6!1s0x3bc2bf1f0e960a37:0xb06b4e11073a270a!8m2!3d18.545905!4d73.798257!16s%2Fg%2F1tx45h11!19sChIJNwqWDh-_wjsRCic6BxFOa7A?authuser=0&hl=en&rclk=1,Late Sanjay Mahadeo Nimhan Gram Sanskruti Udyan,18.545905,73.798257
a38,https://www.google.com/maps/place/Late+Tanajirao+Shitole+Garden/data=!4m7!3m6!1s0x3bc2bf7255a35779:0x6816782e0ba068e1!8m2!3d18.5727471!4d73.8240672!16s%2Fg%2F11h26j4ym4!19sChIJeVejVXK_wjsR4WigCy54Fmg?authuser=0&hl=en&rclk=1,Late Tanajirao Shitole Garden,18.5727471,73.8240672
a39,https://www.google.com/maps/place/LMD+Garden/data=!4m7!3m6!1s0x3bc2be5cdaaaaaab:0xcd11065dbbe7e6cf!8m2!3d18.5109173!4d73.7776899!16s%2Fg%2F11c58s3jx8!19sChIJq6qq2ly-wjsRz-bnu10GEc0?authuser=0&hl=en&rclk=1,LMD Garden,18.5109173,73.7776899
a40,https://www.google.com/maps/place/Lumbini+Garden/data=!4m7!3m6!1s0x3bc2c12393031d93:0xd3d1ed0d403cea94!8m2!3d18.561347!4d73.896412!16s%2Fg%2F1pp2w_v3_!19sChIJkx0DkyPBwjsRlOo8QA3t0dM?authuser=0&hl=en&rclk=1,Lumbini Garden,18.561347,73.896412
a41,https://www.google.com/maps/place/Maha+E-Seva+Kendra/data=!4m7!3m6!1s0x3bc2c07cbec7b239:0x2d5b867138343f50!8m2!3d18.5251555!4d73.8503638!16s%2Fg%2F12q4vbq08!19sChIJObLHvnzAwjsRUD80OHGGWy0?authuser=0&hl=en&rclk=1,Maha E-Seva Kendra,18.5251555,73.8503638
a42,https://www.google.com/maps/place/Mahadji+Shinde+Chhatri/data=!4m7!3m6!1s0x3bc2c1d6e76f6591:0x428a3ab2d8e0aa1d!8m2!3d18.4916261!4d73.8972863!16s%2Fm%2F0h1dm2b!19sChIJkWVv59bBwjsRHarg2LI6ikI?authuser=0&hl=en&rclk=1,Mahadji Shinde Chhatri,18.4916261,73.8972863
a43,"https://www.google.com/maps/place/Mahatma+Gandhi+Udyan,+Bund+Garden+Road/data=!4m7!3m6!1s0x3bc2c0fc855f7b4b:0x481322955c3a742a!8m2!3d18.5414885!4d73.8838033!16s%2Fg%2F11bx8hx73r!19sChIJS3tfhfzAwjsRKnQ6XJUiE0g?authuser=0&hl=en&rclk=1","Mahatma Gandhi Udyan, Bund Garden Road",18.5414885,73.8838033
a44,https://www.google.com/maps/place/Mahatma+Phule+Museum/data=!4m7!3m6!1s0x3bc2c07ed13c41b5:0xd2dc34b1761e1943!8m2!3d18.5235602!4d73.8454239!16s%2Fm%2F0jwxrtq!19sChIJtUE80X7AwjsRQxkedrE03NI?authuser=0&hl=en&rclk=1,Mahatma Phule Museum,18.5235602,73.8454239
a45,https://www.google.com/maps/place/MIT+World+Peace+University+%28MIT-WPU%29/data=!4m7!3m6!1s0x3bc2bfb9e53a05f9:0x2be5e8da02be693e!8m2!3d18.5177559!4d73.8151112!16s%2Fm%2F04d_4lg!19sChIJ-QU65bm_wjsRPmm-Atro5Ss?authuser=0&hl=en&rclk=1,MIT World Peace University (MIT-WPU),18.5177559,73.8151112
a46,https://www.google.com/maps/place/MKSSS%27s+Cummins+College+of+Engineering+For+Women/data=!4m7!3m6!1s0x3bc2bf4376875bc1:0x87df75be1910a270!8m2!3d18.486095!4d73.8162475!16s%2Fm%2F0cr424w!19sChIJwVuHdkO_wjsRcKIQGb5134c?authuser=0&hl=en&rclk=1,MKSSS's Cummins College of Engineering For Women,18.486095,73.8162475
a47,https://www.google.com/maps/place/MMCC/data=!4m7!3m6!1s0x3bc2bf871c30fa5b:0x27aebf8eb337ef50!8m2!3d18.5205335!4d73.8384574!16s%2Fm%2F0cn_3g4!19sChIJW_owHIe_wjsRUO83s46_ric?authuser=0&hl=en&rclk=1,MMCC,18.5205335,73.8384574
a48,"https://www.google.com/maps/place/Modern+College+of+Arts,+Science+%26+Commerce/data=!4m7!3m6!1s0x3bc2bf6995555555:0xead9399e14762578!8m2!3d18.5413447!4d73.8273945!16s%2Fg%2F1tdbp9v7!19sChIJVVVVlWm_wjsReCV2FJ452eo?authuser=0&hl=en&rclk=1","Modern College of Arts, Science & Commerce",18.5413447,73.8273945
a49,"https://www.google.com/maps/place/Modern+College+of+Arts,+Science+and+Commerce/data=!4m7!3m6!1s0x3bc2c07c1e611dcf:0x99c0bffa66bb0ac2!8m2!3d18.5262182!4d73.8453756!16s%2Fg%2F11fyzcn7m_!19sChIJzx1hHnzAwjsRwgq7Zvq_wJk?authuser=0&hl=en&rclk=1","Modern College of Arts, Science and Commerce",18.5262182,73.8453756
a50,https://www.google.com/maps/place/Nana+Wada/data=!4m7!3m6!1s0x3bc2c0657d777681:0xf6ed640821424a9c!8m2!3d18.5182802!4d73.8561775!16s%2Fg%2F11c558t4sf!19sChIJgXZ3fWXAwjsRnEpCIQhk7fY?authuser=0&hl=en&rclk=1,Nana Wada,18.5182802,73.8561775
a51,https://www.google.com/maps/place/Ness+Wadia+College+of+Commerce/data=!4m7!3m6!1s0x3bc2c0f88217370f:0x6d37fbed17f04892!8m2!3d18.5320589!4d73.8803238!16s%2Fm%2F0cr4257!19sChIJDzcXgvjAwjsRkkjwF-37N20?authuser=0&hl=en&rclk=1,Ness Wadia College of Commerce,18.5320589,73.8803238
a52,https://www.google.com/maps/place/Nowrosjee+Wadia+College/data=!4m7!3m6!1s0x3bc2c0f86684e599:0x178af5f825e644cc!8m2!3d18.5330164!4d73.8798336!16s%2Fm%2F0ch4m7y!19sChIJmeWEZvjAwjsRzETmJfj1ihc?authuser=0&hl=en&rclk=1,Nowrosjee Wadia College,18.5330164,73.8798336
a53,https://www.google.com/maps/place/Osho+Garden/data=!4m7!3m6!1s0x3bc2c101d5242505:0xd57c1d7452741948!8m2!3d18.5360446!4d73.8906885!16s%2Fg%2F11c708q54l!19sChIJBSUk1QHBwjsRSBl0UnQdfNU?authuser=0&hl=en&rclk=1,Osho Garden,18.5360446,73.8906885
a54,https://www.google.com/maps/place/Osho+Teerth+Park/data=!4m7!3m6!1s0x3bc2c1004113e727:0xdb7ded8050f08a1f!8m2!3d18.5358733!4d73.8906921!16s%2Fg%2F1tfzkswy!19sChIJJ-cTQQDBwjsRH4rwUIDtfds?authuser=0&hl=en&rclk=1,Osho Teerth Park,18.5358733,73.8906921
a55,https://www.google.com/maps/place/P.E.S.+Modern+College+of+Engineering/data=!4m7!3m6!1s0x3bc2c07e4111123b:0x3f92335c2e5c8400!8m2!3d18.5261982!4d73.8464997!16s%2Fm%2F0cr49yb!19sChIJOxIRQX7AwjsRAIRcLlwzkj8?authuser=0&hl=en&rclk=1,P.E.S. Modern College of Engineering,18.5261982,73.8464997
a56,https://www.google.com/maps/place/Pandit+Bhimsen+Joshi+Udyan/data=!4m7!3m6!1s0x3bc2be4da285ab27:0xfa891a5de56fd7c8!8m2!3d18.5112533!4d73.7912674!16s%2Fg%2F11c1pgmrmr!19sChIJJ6uFok2-wjsRyNdv5V0aifo?authuser=0&hl=en&rclk=1,Pandit Bhimsen Joshi Udyan,18.5112533,73.7912674
a57,https://www.google.com/maps/place/Parvati+Hill/data=!4m7!3m6!1s0x3bc2c00f21476a2b:0x533ce5d42faeea54!8m2!3d18.4969411!4d73.8464995!16s%2Fg%2F11g6mw1pr8!19sChIJK2pHIQ_AwjsRVOquL9TlPFM?authuser=0&hl=en&rclk=1,Parvati Hill,18.4969411,73.8464995
a58,https://www.google.com/maps/place/Pashan+Hill/data=!4m7!3m6!1s0x3bc2bec3a913fdad:0x88e2d8e1522aea65!8m2!3d18.5495132!4d73.7798939!16s%2Fg%2F11c1wrfsd2!19sChIJrf0TqcO-wjsRZeoqUuHY4og?authuser=0&hl=en&rclk=1,Pashan Hill,18.5495132,73.7798939
a59,https://www.google.com/maps/place/Pataleshwar+Cave+Temple/data=!4m7!3m6!1s0x3bc2c1acee331c41:0xe5b820b6a14c49ff!8m2!3d18.5265683!4d73.8504378!16zL20vMDY4Nmds!19sChIJQRwz7qzBwjsR_0lMobYguOU?authuser=0&hl=en&rclk=1,Pataleshwar Cave Temple,18.5265683,73.8504378
a60,https://www.google.com/maps/place/Peshwe+Energy+Park/data=!4m7!3m6!1s0x3bc2c00dd7443b23:0xf4895276b01e7adb!8m2!3d18.5023602!4d73.852232!16s%2Fg%2F1vyk0z83!19sChIJIztE1w3AwjsR23oesHZSifQ?authuser=0&hl=en&rclk=1,Peshwe Energy Park,18.5023602,73.852232
a61,https://www.google.com/maps/place/Peshwe+Museum/data=!4m7!3m6!1s0x3bc2c008d80eaaab:0xab4008bcfc6827e6!8m2!3d18.4972404!4d73.8469023!16s%2Fg%2F11ckr6hjtj!19sChIJq6oO2AjAwjsR5ido_LwIQKs?authuser=0&hl=en&rclk=1,Peshwe Museum,18.4972404,73.8469023
a62,"https://www.google.com/maps/place/Poona+College+of+Arts,+Science+and+Commerce/data=!4m7!3m6!1s0x3bc2c150f5de1f1b:0x896d346c7dc627a4!8m2!3d18.5061659!4d73.8747367!16s%2Fm%2F0cr425y!19sChIJGx_e9VDBwjsRpCfGfWw0bYk?authuser=0&hl=en&rclk=1","Poona College of Arts, Science and Commerce",18.5061659,73.8747367
a63,https://www.google.com/maps/place/Pune+City+Post+Office/data=!4m7!3m6!1s0x3bc2c06f000c8e01:0x88e9127269190567!8m2!3d18.5154837!4d73.8566839!16s%2Fg%2F11c1tqs2z5!19sChIJAY4MAG_AwjsRZwUZaXIS6Yg?authuser=0&hl=en&rclk=1,Pune City Post Office,18.5154837,73.8566839
a64,https://www.google.com/maps/place/Pune-Okayama+Friendship+Garden/data=!4m7!3m6!1s0x3bc2bff990000001:0x3291e3e36f9ad234!8m2!3d18.4913818!4d73.8377317!16s%2Fm%2F0kf_2nb!19sChIJAQAAkPm_wjsRNNKab-PjkTI?authuser=0&hl=en&rclk=1,Pune-Okayama Friendship Garden,18.4913818,73.8377317
a65,https://www.google.com/maps/place/PVG%27S+COET/data=!4m7!3m6!1s0x3bc2c004bc8e1d8f:0x12df641707ea878e!8m2!3d18.4900426!4d73.8523819!16zL20vMGducTZm!19sChIJjx2OvATAwjsRjofqBxdk3xI?authuser=0&hl=en&rclk=1,PVG'S COET,18.4900426,73.8523819
a66,https://www.google.com/maps/place/Raja+Dinkar+Kelkar+Museum/data=!4m7!3m6!1s0x3bc2c073c7e01df5:0x45cf6b0362946df3!8m2!3d18.5106855!4d73.8544307!16zL20vMGd6MDE1!19sChIJ9R3gx3PAwjsR822UYgNrz0U?authuser=0&hl=en&rclk=1,Raja Dinkar Kelkar Museum,18.5106855,73.8544307
a67,https://www.google.com/maps/place/Raje+Chhatrapati+Shivaji+Maharaj+Udyan/data=!4m7!3m6!1s0x3bc2c16e7f7f9a4f:0xd045cdb04843e48a!8m2!3d18.5494145!4d73.9183897!16s%2Fg%2F11c3ywddf7!19sChIJT5p_f27BwjsRiuRDSLDNRdA?authuser=0&hl=en&rclk=1,Raje Chhatrapati Shivaji Maharaj Udyan,18.5494145,73.9183897
a68,https://www.google.com/maps/place/Rajiv+Gandhi+Zoological+Park/data=!4m7!3m6!1s0x3bc2eac307f7a82f:0x3ac431343224b00b!8m2!3d18.4524807!4d73.8607977!16s%2Fm%2F0479krv!19sChIJL6j3B8PqwjsRC7AkMjQxxDo?authuser=0&hl=en&rclk=1,Rajiv Gandhi Zoological Park,18.4524807,73.8607977
a69,"https://www.google.com/maps/place/Ram+Manohar+Lohiya+Garden,+PMC/data=!4m7!3m6!1s0x3bc2c1f1615567af:0x859b46d9427f7c2f!8m2!3d18.5016347!4d73.9275984!16s%2Fg%2F11f0kv8lqd!19sChIJr2dVYfHBwjsRL3x_QtlGm4U?authuser=0&hl=en&rclk=1","Ram Manohar Lohiya Garden, PMC",18.5016347,73.9275984
a70,https://www.google.com/maps/place/Sadguru+Shri+Jangli+Maharaj+Samadhi+Temple/data=!4m7!3m6!1s0x3bc2c07dab4030b7:0xa72c72534d0badc8!8m2!3d18.5265763!4d73.8504224!16s%2Fg%2F1tvt8t4s!19sChIJtzBAq33AwjsRyK0LTVNyLKc?authuser=0&hl=en&rclk=1,Sadguru Shri Jangli Maharaj Samadhi Temple,18.5265763,73.8504224
a71,"https://www.google.com/maps/place/Sarhad+College+of+Arts,Commerce+and+Science/data=!4m7!3m6!1s0x3bc2eac6040cb269:0xac653591baaaa13e!8m2!3d18.454792!4d73.8543882!16s%2Fg%2F11b7_14b5l!19sChIJabIMBMbqwjsRPqGqupE1Zaw?authuser=0&hl=en&rclk=1","Sarhad College of Arts,Commerce and Science",18.454792,73.8543882
a72,https://www.google.com/maps/place/SCTR%27S+Pune+Institute+of+Computer+Technology/data=!4m7!3m6!1s0x3bc2eac85230ba47:0x871eddd0a8a0a108!8m2!3d18.4575421!4d73.8508336!16zL20vMDc3MTl3!19sChIJR7owUsjqwjsRCKGgqNDdHoc?authuser=0&hl=en&rclk=1,SCTR'S Pune Institute of Computer Technology,18.4575421,73.8508336
a73,https://www.google.com/maps/place/Shaniwar+Wada/data=!4m7!3m6!1s0x3bc2c065144d8edf:0x3703b8095866c54b!8m2!3d18.5194647!4d73.8553175!16zL20vMDJ6aDh2!19sChIJ345NFGXAwjsRS8VmWAm4Azc?authuser=0&hl=en&rclk=1,Shaniwar Wada,18.5194647,73.8553175
a74,https://www.google.com/maps/place/Shivaji+Garden/data=!4m7!3m6!1s0x3bc2bf4eca3acc8b:0xa85a2bd0152bc88!8m2!3d18.5694833!4d73.832778!16s%2Fg%2F1tdvc0h2!19sChIJi8w6yk6_wjsRiLxSAb2ihQo?authuser=0&hl=en&rclk=1,Shivaji Garden,18.5694833,73.832778
a75,https://www.google.com/maps/place/Shivarkar+Udyan/data=!4m7!3m6!1s0x3bc2c1d0102e07a3:0x1d1d426e640faf0b!8m2!3d18.4980682!4d73.9002375!16s%2Fg%2F124t4v7cw!19sChIJowcuENDBwjsRC68PZG5CHR0?authuser=0&hl=en&rclk=1,Shivarkar Udyan,18.4980682,73.9002375
a76,https://www.google.com/maps/place/Shivsenapramukh+Balasaheb+Thakrey+Garden/data=!4m7!3m6!1s0x3bc2bf95cfc1054b:0x8721ee56eb6af9f1!8m2!3d18.4967204!4d73.808778!16s%2Fg%2F11g10l9gw3!19sChIJSwXBz5W_wjsR8flq61buIYc?authuser=0&hl=en&rclk=1,Shivsenapramukh Balasaheb Thakrey Garden,18.4967204,73.808778
a77,https://www.google.com/maps/place/Shree+Chhatrapati+Shahu+Garden/data=!4m7!3m6!1s0x3bc2c05d26b07e01:0x27e567b788b30173!8m2!3d18.5210443!4d73.8681221!16s%2Fg%2F1trxhqzf!19sChIJAX6wJl3AwjsRcwGziLdn5Sc?authuser=0&hl=en&rclk=1,Shree Chhatrapati Shahu Garden,18.5210443,73.8681221
a78,https://www.google.com/maps/place/Shree+Devdeveshwar+Temple+%28Parvati+Temple%29/data=!4m7!3m6!1s0x3bc2c0092914712b:0x914fa134851ec8f2!8m2!3d18.4979339!4d73.8494686!16s%2Fg%2F1tx13tyg!19sChIJK3EUKQnAwjsR8sgehTShT5E?authuser=0&hl=en&rclk=1,Shree Devdeveshwar Temple (Parvati Temple),18.4979339,73.8494686
a79,https://www.google.com/maps/place/Shree+Dulya+Maruti+Mandir/data=!4m7!3m6!1s0x3bc2c0685482377d:0x91d6660cc61ae535!8m2!3d18.516169!4d73.8627929!16s%2Fg%2F1hf5dw5vp!19sChIJfTeCVGjAwjsRNeUaxgxm1pE?authuser=0&hl=en&rclk=1,Shree Dulya Maruti Mandir,18.516169,73.8627929
a80,https://www.google.com/maps/place/Shree+Kasba+Ganapati+Mandal/data=!4m7!3m6!1s0x3bc2c065856105c7:0x5ae2cbb0f0936fad!8m2!3d18.5190611!4d73.8570167!16zL20vMDRiZnI4!19sChIJxwVhhWXAwjsRrW-T8LDL4lo?authuser=0&hl=en&rclk=1,Shree Kasba Ganapati Mandal,18.5190611,73.8570167
a81,https://www.google.com/maps/place/Shree+Navagraha+Shani+Mandir/data=!4m7!3m6!1s0x3bc2c06574b46e37:0xf26e283b9a474cca!8m2!3d18.5196912!4d73.8562743!16s%2Fg%2F1tfvfnn3!19sChIJN260dGXAwjsRykxHmjsobvI?authuser=0&hl=en&rclk=1,Shree Navagraha Shani Mandir,18.5196912,73.8562743
a82,https://www.google.com/maps/place/Shree+Omkareshwar+Temple/data=!4m7!3m6!1s0x3bc2c07a37459ce3:0x90646f988cfb5dd9!8m2!3d18.5198727!4d73.8489289!16s%2Fg%2F1tk61kl0!19sChIJ45xFN3rAwjsR2V37jJhvZJA?authuser=0&hl=en&rclk=1,Shree Omkareshwar Temple,18.5198727,73.8489289
a83,https://www.google.com/maps/place/Shree+Trishunda+Ganpati+Mandir/data=!4m7!3m6!1s0x3bc2c066f80ca1df:0x2bef7438a1bfb61d!8m2!3d18.5216712!4d73.8618404!16s%2Fg%2F1261dghc8!19sChIJ36EM-GbAwjsRHba_oTh07ys?authuser=0&hl=en&rclk=1,Shree Trishunda Ganpati Mandir,18.5216712,73.8618404
a84,https://www.google.com/maps/place/Shreemant+Dagdusheth+Halwai+Ganpati+Mandir/data=!4m7!3m6!1s0x3bc2c06fa5b442ff:0x9df365f5b648bce1!8m2!3d18.5164297!4d73.8561329!16s%2Fm%2F04zxxlg!19sChIJ_0K0pW_AwjsR4bxItvVl850?authuser=0&hl=en&rclk=1,Shreemant Dagdusheth Halwai Ganpati Mandir,18.5164297,73.8561329
a85,"https://www.google.com/maps/place/Shreemant+Dagdusheth+Halwai+Ganpati+Mandir/@18.5164297,73.8509831,16z/data=!4m10!1m2!2m1!1spopular+temples+in+pune!3m6!1s0x3bc2c06fa5b442ff:0x9df365f5b648bce1!8m2!3d18.5164297!4d73.8561329!15sChdwb3B1bGFyIHRlbXBsZXMgaW4gcHVuZVoZIhdwb3B1bGFyIHRlbXBsZXMgaW4gcHVuZZIBDGhpbmR1X3RlbXBsZZoBJENoZERTVWhOTUc5blMwVkpRMEZuU1VOYU9FNDNURjkzUlJBQuABAA!16s%2Fm%2F04zxxlg?authuser=0&hl=en&entry=ttu",Shreemant Dagdusheth Halwai Ganpati Mandir,18.5164297,73.8561329
a86,https://www.google.com/maps/place/Shri+Ahobila+Mutt%27s+Shri+Balaji+Mandir/data=!4m7!3m6!1s0x3bc2c040b7b80817:0x7326e69af04d43ff!8m2!3d18.5095735!4d73.8712834!16s%2Fg%2F1tc_jlbt!19sChIJFwi4t0DAwjsR_0NN8JrmJnM?authuser=0&hl=en&rclk=1,Shri Ahobila Mutt's Shri Balaji Mandir,18.5095735,73.8712834
a87,https://www.google.com/maps/place/Shri+Dashbhuja+Ganpati+Mandir/data=!4m7!3m6!1s0x3bc2bf9317a45791:0x5cf4a781762f19ac!8m2!3d18.505765!4d73.8258388!16s%2Fm%2F02x5vk1!19sChIJkVekF5O_wjsRrBkvdoGn9Fw?authuser=0&hl=en&rclk=1,Shri Dashbhuja Ganpati Mandir,18.505765,73.8258388
a88,https://www.google.com/maps/place/Shri+Siddhivinayak+Ganesh+Mandir+Sarasbaug/data=!4m7!3m6!1s0x3bc2c00de2b2e577:0x5376a0a64c6a529e!8m2!3d18.5008945!4d73.8530501!16s%2Fg%2F1v1tljrr!19sChIJd-Wy4g3AwjsRnlJqTKagdlM?authuser=0&hl=en&rclk=1,Shri Siddhivinayak Ganesh Mandir Sarasbaug,18.5008945,73.8530501
a89,https://www.google.com/maps/place/Sir+Parashurambhau+College/data=!4m7!3m6!1s0x3bc2c0734cddd56d:0xeb01ded0f540b4e4!8m2!3d18.5073729!4d73.8496335!16zL20vMGdoN2Rq!19sChIJbdXdTHPAwjsR5LRA9dDeAes?authuser=0&hl=en&rclk=1,Sir Parashurambhau College,18.5073729,73.8496335
a90,https://www.google.com/maps/place/Symbiosis+College+Of+Arts+%26+Commerce/data=!4m7!3m6!1s0x3bc2c080cbf9d46b:0x742c13f60cc8ad3b!8m2!3d18.5223792!4d73.829853!16s%2Fg%2F1tf2qpcv!19sChIJa9T5y4DAwjsRO63IDPYTLHQ?authuser=0&hl=en&rclk=1,Symbiosis College Of Arts & Commerce,18.5223792,73.829853
a91,https://www.google.com/maps/place/Thorat+Garden/data=!4m7!3m6!1s0x3bc2bfc0a86f09c3:0xeeb10bdda2b0574c!8m2!3d18.5022954!4d73.8132337!16s%2Fg%2F11bzsfd6pj!19sChIJwwlvqMC_wjsRTFewot0Lse4?authuser=0&hl=en&rclk=1,Thorat Garden,18.5022954,73.8132337
a92,https://www.google.com/maps/place/Tulshibaug+Shri+Ram+Mandir/data=!4m7!3m6!1s0x3bc2c06e6a4e3f97:0xae67d104e0390548!8m2!3d18.5137617!4d73.8553648!16s%2Fg%2F1tdx74p3!19sChIJlz9Oam7AwjsRSAU54ATRZ64?authuser=0&hl=en&rclk=1,Tulshibaug Shri Ram Mandir,18.5137617,73.8553648
a93,https://www.google.com/maps/place/Vetal+Hill/data=!4m7!3m6!1s0x3bc2bfa63ce4d6bf:0xe1cb329390a70481!8m2!3d18.5210589!4d73.8216411!16s%2Fg%2F11ddzp784b!19sChIJv9bkPKa_wjsRgQSnkJMyy-E?authuser=0&hl=en&rclk=1,Vetal Hill,18.5210589,73.8216411
a94,https://www.google.com/maps/place/Vishrambaug+Wada/data=!4m7!3m6!1s0x3bc2c06e20750ff1:0x2ef3b67bf88d87f!8m2!3d18.5138342!4d73.8536767!16s%2Fm%2F0b6gjh8!19sChIJ8Q91IG7AwjsRf9iIv2c77wI?authuser=0&hl=en&rclk=1,Vishrambaug Wada,18.5138342,73.8536767
a95,https://www.google.com/maps/place/Wagheshwar+Temple/data=!4m7!3m6!1s0x3bc2c6393a6d7bf3:0x2f6b86463fa9e859!8m2!3d18.5817345!4d73.9776728!16s%2Fg%2F1tk21cnh!19sChIJ83ttOjnGwjsRWeipP0aGay8?authuser=0&hl=en&rclk=1,Wagheshwar Temple,18.5817345,73.9776728
a96,https://www.google.com/maps/place/Yashwantrao+Chavan+Garden/data=!4m7!3m6!1s0x3bc2c01acd68e3a7:0x9b38be960faab409!8m2!3d18.4929192!4d73.8537753!16s%2Fg%2F1tdb2qm_!19sChIJp-NozRrAwjsRCbSqD5a-OJs?authuser=0&hl=en&rclk=1,Yashwantrao Chavan Garden,18.4929192,73.8537753
a97,https://www.google.com/maps/place/Zero+Stone/data=!4m7!3m6!1s0x3bc2c05a624f9a43:0x456c2abd4e8d37bd!8m2!3d18.5230388!4d73.8762163!16s%2Fg%2F11c6ts4pzy!19sChIJQ5pPYlrAwjsRvTeNTr0qbEU?authuser=0&hl=en&rclk=1,Zero Stone,18.5230388,73.8762163
